Id,Time(seconds),Time(text),Latitude,Longitude,FlightMode,Altitude(feet),Altitude(meters),VpsAltitude(feet),VpsAltitude(meters),HSpeed(mph),HSpeed(m/s),GpsSpeed(mph),GpsSpeed(m/s),HomeDistance(feet),HomeDistance(meters),HomeLatitude,HomeLongitude,GpsCount,GpsLevel,BatteryPower(%),BatteryVoltage,BatteryVoltageDeviation,BatteryCell1Voltage,BatteryCell2Voltage,BatteryCell3Voltage,VelocityX,VelocityY,VelocityZ,Pitch,Roll,Yaw,Yaw(360),RcAileron,RcElevator,RcGyro,RcRudder,RcThrottle,NonGpsError,GoHomeStatus,AppTip,AppWarning,AppMessage
1,519.4,8m 39.4s,38.95689262,-95.27493268,Starting Motors,0.0,0.0,0.7,0.2,0.0,0.0,0.0,0.0,8.9,2.7,38.95690218,-95.2749037,16,5,61,11.721,0,3.907,3.907,3.907,0,0,0,1.6,-3.6,-173.9,186.1,1024,1024,1024,1024,1024,,,,Your aircraft has entered a Warning Zone (Class E Airspace). Please fly with caution.,
2,519.5,8m 39.5s,38.95689261,-95.27493269,Starting Motors,0.0,0.0,0.7,0.2,0.0,0.0,0.0,0.0,8.9,2.7,38.95690218,-95.2749037,16,5,61,11.721,0,3.907,3.907,3.907,0,0,0,1.6,-3.6,-173.9,186.1,1024,1024,1024,1024,1024,,,,,
3,519.6,8m 39.6s,38.95689259,-95.27493272,Starting Motors,0.0,0.0,0.7,0.2,0.0,0.0,0.0,0.0,8.9,2.7,38.95690218,-95.2749037,16,5,61,11.721,0,3.907,3.907,3.907,0,0,0,1.6,-3.6,-173.9,186.1,1024,1024,1024,1024,1024,,,,,
4,519.7,8m 39.7s,38.95689256,-95.27493275,Starting Motors,0.0,0.0,0.7,0.2,0.0,0.0,0.0,0.0,9.0,2.7,38.95690218,-95.2749037,16,5,61,11.721,0,3.907,3.907,3.907,0,0,0,1.7,-3.6,-173.8,186.2,1024,1024,1024,1024,1024,,,,,
5,519.8,8m 39.8s,38.95689257,-95.27493278,Starting Motors,0.0,0.0,0.7,0.2,0.0,0.0,0.0,0.0,9.0,2.7,38.95690218,-95.2749037,16,5,61,11.721,0,3.907,3.907,3.907,0,0,0,1.7,-3.6,-174,186,1024,1024,1024,1024,1024,,,,,
6,519.9,8m 39.9s,38.95689258,-95.27493279,Starting Motors,0.0,0.0,0.3,0.1,0.0,0.0,0.0,0.0,9.0,2.7,38.95690218,-95.2749037,16,5,61,11.721,0,3.907,3.907,3.907,0,0,0,1.7,-3.6,-174.1,185.9,1024,1024,1024,1024,1024,,,,,
7,520,8m 40s,38.95689258,-95.27493283,Starting Motors,0.0,0.0,0.3,0.1,0.0,0.0,0.0,0.0,9.0,2.7,38.95690218,-95.2749037,16,5,61,11.721,0,3.907,3.907,3.907,0,0,0,1.6,-3.6,-174,186,1024,1024,1024,1024,1024,,,,,
8,520.1,8m 40.1s,38.95689255,-95.27493286,Starting Motors,0.0,0.0,0.3,0.1,0.0,0.0,0.0,0.0,9.0,2.7,38.95690218,-95.2749037,16,5,61,11.721,0,3.907,3.907,3.907,0,0,0,1.6,-3.6,-174.1,185.9,1024,1024,1024,1024,1024,,,,,
9,520.2,8m 40.2s,38.95689254,-95.27493291,Starting Motors,0.0,0.0,0.3,0.1,0.0,0.0,0.0,0.0,9.0,2.7,38.95690218,-95.2749037,16,5,61,11.721,0,3.907,3.907,3.907,0,0,0,1.6,-3.6,-174.1,185.9,1024,1024,1024,1024,1024,,,,,
10,520.3,8m 40.3s,38.95689252,-95.27493296,Starting Motors,0.0,0.0,0.3,0.1,0.0,0.0,0.0,0.0,9.0,2.8,38.95690218,-95.2749037,16,5,61,11.721,0,3.907,3.907,3.907,0,0,0,1.6,-3.6,-174.1,185.9,1024,1024,1024,1024,1024,,,,,
11,520.4,8m 40.4s,38.95689256,-95.27493302,Starting Motors,0.0,0.0,0.3,0.1,0.0,0.0,0.0,0.0,9.0,2.8,38.95690218,-95.2749037,16,5,60,11.723,0.001,3.908,3.908,3.907,0,0,0,1.6,-3.6,-174.1,185.9,1024,1024,1024,1024,1024,,,,,
12,520.5,8m 40.5s,38.95689257,-95.27493308,Starting Motors,0.0,0.0,0.3,0.1,0.0,0.0,0.0,0.0,9.0,2.8,38.95690218,-95.2749037,16,5,60,11.723,0.001,3.908,3.908,3.907,0,0,0,1.6,-3.6,-174.1,185.9,1024,1024,1024,1024,1024,,,,,
13,520.6,8m 40.6s,38.95689261,-95.27493315,Auto Takeoff,0.0,0.0,0.3,0.1,0.0,0.0,0.0,0.0,9.1,2.8,38.95690218,-95.2749037,16,5,60,11.723,0.001,3.908,3.908,3.907,0,0,0,1.6,-3.6,-174.1,185.9,1024,1024,1024,1024,1024,,,,,
14,520.7,8m 40.7s,38.95689262,-95.2749332,Auto Takeoff,0.0,0.0,0.3,0.1,0.0,0.0,0.0,0.0,9.1,2.8,38.95690218,-95.2749037,16,5,60,11.723,0.001,3.908,3.908,3.907,0,0,0,1.6,-3.6,-174.1,185.9,1024,1024,1024,1024,1024,,,,,
15,520.8,8m 40.8s,38.95689264,-95.27493324,Auto Takeoff,0.0,0.0,0.3,0.1,0.0,0.0,0.0,0.0,9.1,2.8,38.95690218,-95.2749037,16,5,60,11.723,0.001,3.908,3.908,3.907,0,0,0,1.6,-3.6,-174.1,185.9,1024,1024,1024,1024,1024,,,,,
16,520.9,8m 40.9s,38.95689265,-95.27493327,Auto Takeoff,0.0,0.0,0.3,0.1,0.0,0.0,0.0,0.0,9.1,2.8,38.95690218,-95.2749037,16,5,60,11.723,0.001,3.908,3.908,3.907,0,0,0,1.6,-3.6,-174.1,185.9,1024,1024,1024,1024,1024,,,,,
17,521,8m 41s,38.95689266,-95.27493328,Auto Takeoff,0.0,0.0,0.3,0.1,0.0,0.0,0.0,0.0,9.1,2.8,38.95690218,-95.2749037,16,5,60,11.723,0.001,3.908,3.908,3.907,0,0,0,1.6,-3.5,-174.2,185.8,1024,1024,1024,1024,1024,,,,,
18,521.1,8m 41.1s,38.95689267,-95.27493327,Auto Takeoff,0.0,0.0,0.3,0.1,0.0,0.0,1.1,0.5,9.1,2.8,38.95690218,-95.2749037,16,5,60,11.723,0.001,3.908,3.908,3.907,0,0,0,1.1,-2.2,-174.5,185.5,1024,1024,1024,1024,1024,,,,,
19,521.2,8m 41.2s,38.95689272,-95.2749332,Auto Takeoff,0.0,0.0,0.7,0.2,0.0,0.0,NaN,NaN,9.0,2.8,38.95690218,-95.2749037,16,5,60,11.723,0.001,3.908,3.908,3.907,0,0,-0.1,-0.3,0.3,-174.7,185.3,1024,1024,1024,1024,1024,,,,,
20,521.3,8m 41.3s,38.95689277,-95.27493313,Auto Takeoff,0.0,0.0,0.7,0.2,0.0,0.0,0.0,0.0,9.0,2.8,38.95690218,-95.2749037,16,5,60,11.723,0.001,3.908,3.908,3.907,0,0,-0.3,0,0.7,-174.6,185.4,1024,1024,1024,1024,1024,,,,,
21,521.4,8m 41.4s,38.95689287,-95.27493305,Auto Takeoff,0.0,0.0,0.7,0.2,0.0,0.0,0.0,0.0,0.3,0.1,38.95689271,-95.27493322,16,5,60,11.707,0.001,3.902,3.903,3.902,0,0,-0.4,0.1,0.6,-174.6,185.4,1024,1024,1024,1024,1024,,,,,Home Point Updated
22,521.5,8m 41.5s,38.95689299,-95.27493298,Auto Takeoff,0.3,0.1,0.7,0.2,0.0,0.0,0.0,0.0,0.0,0.0,38.95689271,-95.27493322,16,5,60,11.707,0.001,3.902,3.903,3.902,0,0,-0.5,0.4,0.8,-174.5,185.5,1024,1024,1024,1024,1024,,,Home Point Recorded. RTH Altitude:  30m.,,
23,521.6,8m 41.6s,38.95689313,-95.27493288,Auto Takeoff,0.3,0.1,1.0,0.3,0.2,0.1,0.0,0.0,0.3,0.1,38.95689271,-95.27493322,16,5,60,11.707,0.001,3.902,3.903,3.902,0.1,0,-0.5,-0.2,1,-174.5,185.5,1024,1024,1024,1024,1024,,,,,
24,521.7,8m 41.7s,38.95689328,-95.2749328,Auto Takeoff,0.7,0.2,1.0,0.3,0.2,0.1,0.0,0.0,0.3,0.1,38.95689271,-95.27493322,16,5,60,11.707,0.001,3.902,3.903,3.902,0.1,0,-0.5,-1.1,0.7,-174.6,185.4,1024,1024,1024,1024,1024,,,,,
25,521.8,8m 41.8s,38.95689348,-95.27493273,Auto Takeoff,0.7,0.2,1.0,0.3,0.2,0.1,0.0,0.0,0.4,0.1,38.95689271,-95.27493322,17,5,60,11.707,0.001,3.902,3.903,3.902,0.1,0,-0.5,-1.6,0.6,-174.6,185.4,1024,1024,1024,1024,1024,,,,,
26,521.9,8m 41.9s,38.95689366,-95.27493267,Auto Takeoff,1.0,0.3,1.0,0.3,0.4,0.2,1.1,0.5,0.4,0.1,38.95689271,-95.27493322,17,5,60,11.707,0.001,3.902,3.903,3.902,0.2,0,-0.5,-2.4,0.8,-174.6,185.4,1024,1024,1024,1024,1024,,,,,
27,522,8m 42s,38.95689385,-95.27493269,Auto Takeoff,1.0,0.3,1.3,0.4,0.2,0.1,0.0,0.0,0.4,0.1,38.95689271,-95.27493322,17,5,60,11.707,0.001,3.902,3.903,3.902,0.1,0,-0.4,-3.5,1,-174.7,185.3,1024,1024,1024,1024,1024,,,,,
28,522.1,8m 42.1s,38.956894,-95.27493273,Auto Takeoff,1.3,0.4,1.3,0.4,0.2,0.1,0.0,0.0,0.5,0.2,38.95689271,-95.27493322,17,5,60,11.707,0.001,3.902,3.903,3.902,0.1,0,-0.4,-3.1,0.7,-174.8,185.2,1024,1024,1024,1024,1024,,,,,
29,522.2,8m 42.2s,38.95689413,-95.27493278,Auto Takeoff,1.3,0.4,1.3,0.4,0.2,0.1,0.0,0.0,0.6,0.2,38.95689271,-95.27493322,17,5,60,11.707,0.001,3.902,3.903,3.902,0.1,0,-0.3,-2.9,0.6,-174.8,185.2,1024,1024,1024,1024,1024,,,,,
30,522.3,8m 42.3s,38.95689422,-95.27493282,Auto Takeoff,1.3,0.4,1.3,0.4,0.0,0.0,1.1,0.5,0.6,0.2,38.95689271,-95.27493322,17,5,60,11.707,0.001,3.902,3.903,3.902,0,0,-0.3,-2.6,0.2,-174.6,185.4,1024,1024,1024,1024,1024,,,,,
31,522.4,8m 42.4s,38.95689431,-95.27493292,Auto Takeoff,1.6,0.5,1.6,0.5,0.0,0.0,1.1,0.5,0.6,0.2,38.95689271,-95.27493322,17,5,60,11.574,0.008,3.862,3.858,3.854,0,0,-0.3,-2.4,0.1,-174.6,185.4,1024,1024,1024,1024,1024,,,,,
32,522.5,8m 42.5s,38.95689439,-95.27493302,Auto Takeoff,1.6,0.5,1.6,0.5,0.0,0.0,0.0,0.0,0.6,0.2,38.95689271,-95.27493322,17,5,60,11.574,0.008,3.862,3.858,3.854,0,0,-0.4,-2.1,0.1,-174.5,185.5,1024,1024,1024,1024,1024,,,,,
33,522.6,8m 42.6s,38.95689446,-95.27493311,Auto Takeoff,2.0,0.6,2.0,0.6,0.0,0.0,0.0,0.0,0.7,0.2,38.95689271,-95.27493322,17,5,60,11.574,0.008,3.862,3.858,3.854,0,0,-0.4,-1.8,0,-174.5,185.5,1024,1024,1024,1024,1024,,,,,
34,522.7,8m 42.7s,38.95689453,-95.27493319,Auto Takeoff,2.0,0.6,2.0,0.6,0.0,0.0,0.0,0.0,0.7,0.2,38.95689271,-95.27493322,17,5,60,11.574,0.008,3.862,3.858,3.854,0,0,-0.4,-1.7,0,-174.5,185.5,1024,1024,1024,1024,1024,,,,,
35,522.8,8m 42.8s,38.9568946,-95.27493326,Auto Takeoff,2.3,0.7,2.3,0.7,0.0,0.0,1.1,0.5,0.8,0.2,38.95689271,-95.27493322,17,5,60,11.574,0.008,3.862,3.858,3.854,0,0,-0.4,-1.9,-0.2,-174.6,185.4,1024,1024,1024,1024,1024,,,,,
36,522.9,8m 42.9s,38.95689465,-95.27493334,Auto Takeoff,2.3,0.7,2.3,0.7,0.0,0.0,0.0,0.0,0.8,0.2,38.95689271,-95.27493322,17,5,60,11.574,0.008,3.862,3.858,3.854,0,0,-0.5,-2.1,-0.3,-174.5,185.5,1024,1024,1024,1024,1024,,,,,
37,523,8m 43s,38.95689474,-95.27493337,Auto Takeoff,2.6,0.8,2.6,0.8,0.0,0.0,1.1,0.5,0.8,0.2,38.95689271,-95.27493322,17,5,60,11.574,0.008,3.862,3.858,3.854,0,0,-0.5,-2.2,-0.6,-174.6,185.4,1024,1024,1024,1024,1024,,,,,
38,523.1,8m 43.1s,38.95689483,-95.27493339,Auto Takeoff,2.6,0.8,2.6,0.8,0.0,0.0,0.0,0.0,0.8,0.2,38.95689271,-95.27493322,17,5,60,11.574,0.008,3.862,3.858,3.854,0,0,-0.5,-2.4,-0.4,-174.7,185.3,1024,1024,1024,1024,1024,,,,,
39,523.2,8m 43.2s,38.95689488,-95.27493339,Auto Takeoff,3.0,0.9,3.0,0.9,0.0,0.0,0.0,0.0,0.8,0.2,38.95689271,-95.27493322,17,5,60,11.574,0.008,3.862,3.858,3.854,0,0,-0.5,-2.6,-0.7,-174.7,185.3,1024,1024,1024,1024,1024,,,,,
40,523.3,8m 43.3s,38.95689492,-95.2749334,Auto Takeoff,3.0,0.9,3.0,0.9,0.0,0.0,0.0,0.0,0.8,0.3,38.95689271,-95.27493322,17,5,60,11.574,0.008,3.862,3.858,3.854,0,0,-0.5,-2.9,-0.8,-174.8,185.2,1024,1024,1024,1024,1024,,,,,
41,523.4,8m 43.4s,38.956895,-95.27493337,Auto Takeoff,3.3,1.0,3.3,1.0,0.0,0.0,0.0,0.0,0.9,0.3,38.95689271,-95.27493322,18,5,60,11.574,0.008,3.862,3.858,3.854,0,0,-0.5,-3.2,-0.4,-174.7,185.3,1024,1024,1024,1024,1024,,,,,
42,523.5,8m 43.5s,38.95689508,-95.27493332,Auto Takeoff,3.3,1.0,3.6,1.1,0.0,0.0,1.1,0.5,0.9,0.3,38.95689271,-95.27493322,18,5,60,11.574,0.008,3.862,3.858,3.854,0,0,-0.5,-3.3,-0.2,-174.7,185.3,1024,1024,1024,1024,1024,,,,,
43,523.6,8m 43.6s,38.95689514,-95.27493329,P-GPS,3.6,1.1,3.6,1.1,0.0,0.0,1.1,0.5,0.9,0.3,38.95689271,-95.27493322,18,5,60,11.574,0.008,3.862,3.858,3.854,0,0,-0.4,-3.4,-0.2,-174.6,185.4,1024,1024,1024,1024,1024,,,,,
44,523.7,8m 43.7s,38.95689517,-95.27493327,P-GPS,3.6,1.1,3.9,1.2,0.0,0.0,0.0,0.0,0.9,0.3,38.95689271,-95.27493322,18,5,60,11.574,0.008,3.862,3.858,3.854,0,0,-0.2,-3.5,0,-174.4,185.6,1024,1024,1024,1024,1024,,,,,
45,523.8,8m 43.8s,38.95689522,-95.27493322,P-GPS,3.6,1.1,3.9,1.2,0.0,0.0,1.1,0.5,1.0,0.3,38.95689271,-95.27493322,18,5,60,11.574,0.008,3.862,3.858,3.854,0,0,-0.1,-3,0,-174.2,185.8,1024,1024,1024,1024,1024,,,,,
46,523.9,8m 43.9s,38.95689525,-95.27493317,P-GPS,3.6,1.1,3.9,1.2,0.0,0.0,0.0,0.0,1.0,0.3,38.95689271,-95.27493322,18,5,60,11.574,0.008,3.862,3.858,3.854,0,0,0,-2.7,0.4,-174.2,185.8,1024,1024,1024,1024,1024,,,,,
47,524,8m 44s,38.95689527,-95.27493309,P-GPS,3.9,1.2,3.9,1.2,0.0,0.0,0.0,0.0,0.9,0.3,38.95689271,-95.27493322,19,5,60,11.574,0.008,3.862,3.858,3.854,0,0,0,-2.7,0.4,-174.1,185.9,1024,1024,1024,1024,1024,,,,,
48,524.1,8m 44.1s,38.95689525,-95.27493301,P-GPS,3.9,1.2,4.3,1.3,0.0,0.0,0.0,0.0,1.0,0.3,38.95689271,-95.27493322,19,5,60,11.574,0.008,3.862,3.858,3.854,0,0,0,-2.9,0.5,-174.2,185.8,1021,1024,1024,1024,1024,,,,,
49,524.2,8m 44.2s,38.95689525,-95.27493294,P-GPS,3.9,1.2,4.3,1.3,0.0,0.0,0.0,0.0,1.0,0.3,38.95689271,-95.27493322,19,5,60,11.574,0.008,3.862,3.858,3.854,0,0,0,-2.7,0.6,-174.2,185.8,956,1024,1024,1024,1024,,,,,
50,524.3,8m 44.3s,38.95689524,-95.27493289,P-GPS,3.9,1.2,4.3,1.3,0.0,0.0,0.0,0.0,0.9,0.3,38.95689271,-95.27493322,19,5,60,11.574,0.008,3.862,3.858,3.854,0,0,0,-2.5,0.6,-174.1,185.9,877,1024,1024,1024,1024,,,,,
51,524.4,8m 44.4s,38.95689523,-95.27493285,P-GPS,3.9,1.2,4.3,1.3,0.0,0.0,0.0,0.0,1.0,0.3,38.95689271,-95.27493322,19,5,60,11.555,0.007,3.855,3.852,3.848,0,0,0,-1.6,0.5,-174.2,185.8,822,1024,1024,1024,1024,,,,,
52,524.5,8m 44.5s,38.95689521,-95.27493282,P-GPS,3.9,1.2,4.3,1.3,0.0,0.0,0.0,0.0,0.9,0.3,38.95689271,-95.27493322,19,5,60,11.555,0.007,3.855,3.852,3.848,0,0,0,-1.4,0.3,-174.2,185.8,807,1024,1024,1024,1024,,,,,
53,524.6,8m 44.6s,38.95689522,-95.27493279,P-GPS,3.9,1.2,4.3,1.3,0.0,0.0,0.0,0.0,1.0,0.3,38.95689271,-95.27493322,19,5,60,11.555,0.007,3.855,3.852,3.848,0,0,0,-1.4,-0.5,-174.1,185.9,790,1024,1024,1024,1024,,,,,
54,524.7,8m 44.7s,38.95689522,-95.27493276,P-GPS,3.9,1.2,4.3,1.3,0.0,0.0,0.0,0.0,1.0,0.3,38.95689271,-95.27493322,19,5,60,11.555,0.007,3.855,3.852,3.848,0,0,0,-1.4,-1.2,-174.1,185.9,782,1024,1024,1024,1024,,,,,
55,524.8,8m 44.8s,38.95689528,-95.27493267,P-GPS,3.9,1.2,4.3,1.3,0.0,0.0,0.0,0.0,1.0,0.3,38.95689271,-95.27493322,19,5,60,11.555,0.007,3.855,3.852,3.848,0,0,0,-1.5,-1.7,-174.1,185.9,803,1024,1024,1024,1024,,,,,
56,524.9,8m 44.9s,38.95689533,-95.27493256,P-GPS,3.9,1.2,4.3,1.3,0.0,0.0,0.0,0.0,1.0,0.3,38.95689271,-95.27493322,19,5,60,11.555,0.007,3.855,3.852,3.848,0,0,0,-1.4,-2.2,-174.1,185.9,871,1024,1024,1024,1024,,,,,
57,525,8m 45s,38.9568954,-95.2749324,P-GPS,3.9,1.2,4.3,1.3,0.0,0.0,0.0,0.0,1.1,0.3,38.95689271,-95.27493322,19,5,60,11.555,0.007,3.855,3.852,3.848,0,0,0,-1.5,-2.2,-174.1,185.9,961,1024,1024,1024,1024,,,,,
58,525.1,8m 45.1s,38.95689544,-95.2749322,P-GPS,3.9,1.2,4.3,1.3,0.2,0.1,0.0,0.0,1.1,0.3,38.95689271,-95.27493322,19,5,60,11.555,0.007,3.855,3.852,3.848,0,0.1,0,-1.5,-1.4,-174.1,185.9,1016,1024,1024,1024,1024,,,,,
59,525.2,8m 45.2s,38.95689552,-95.27493197,P-GPS,3.9,1.2,4.3,1.3,0.2,0.1,0.0,0.0,1.1,0.3,38.95689271,-95.27493322,19,5,60,11.555,0.007,3.855,3.852,3.848,0,0.1,0,-1.6,-0.8,-174.1,185.9,906,1024,1024,1024,1024,,,,,
60,525.3,8m 45.3s,38.95689559,-95.27493173,P-GPS,3.9,1.2,4.3,1.3,0.2,0.1,0.0,0.0,1.2,0.4,38.95689271,-95.27493322,19,5,60,11.555,0.007,3.855,3.852,3.848,0,0.1,0,-1.5,0,-174.2,185.8,574,1024,1024,1024,1024,,,,,
61,525.4,8m 45.4s,38.95689568,-95.27493147,P-GPS,3.9,1.2,4.3,1.3,0.2,0.1,0.0,0.0,1.2,0.4,38.95689271,-95.27493322,19,5,60,11.555,0.007,3.855,3.852,3.848,0,0.1,0,-1.4,0.5,-174.1,185.9,540,1024,1024,1024,1024,,,,,
62,525.5,8m 45.5s,38.95689576,-95.27493124,P-GPS,3.9,1.2,4.3,1.3,0.2,0.1,0.0,0.0,1.3,0.4,38.95689271,-95.27493322,19,5,60,11.547,0.008,3.853,3.849,3.845,0,0.1,0,-1.3,-5.5,-173.9,186.1,647,1024,1024,1024,1024,,,,,
63,525.6,8m 45.6s,38.95689585,-95.27493096,P-GPS,3.9,1.2,4.3,1.3,0.4,0.2,0.0,0.0,1.3,0.4,38.95689271,-95.27493322,19,5,60,11.547,0.008,3.853,3.849,3.845,0,0.2,0,-1.4,-9,-174,186,952,1024,1024,1024,1024,,,,,
64,525.7,8m 45.7s,38.95689593,-95.27493052,P-GPS,3.9,1.2,4.3,1.3,0.9,0.4,1.5,0.7,1.4,0.4,38.95689271,-95.27493322,19,5,60,11.547,0.008,3.853,3.849,3.845,0,0.4,0,-1.4,-9.2,-174,186,970,1024,1024,1024,1024,,,,,
65,525.8,8m 45.8s,38.95689602,-95.27492989,P-GPS,3.9,1.2,4.3,1.3,1.1,0.5,1.1,0.5,1.5,0.5,38.95689271,-95.27493322,19,5,60,11.547,0.008,3.853,3.849,3.845,0,0.5,0,-1.5,-3.1,-174.1,185.9,970,1024,1024,1024,1024,,,,,
66,525.9,8m 45.9s,38.95689611,-95.27492919,P-GPS,3.9,1.2,4.3,1.3,1.1,0.5,0.0,0.0,1.6,0.5,38.95689271,-95.27493322,19,5,60,11.547,0.008,3.853,3.849,3.845,0,0.5,0,-1.5,-2.3,-174,186,1024,1024,1024,1024,1024,,,,,
67,526,8m 46s,38.95689626,-95.27492839,P-GPS,3.9,1.2,4.3,1.3,1.1,0.5,1.5,0.7,1.9,0.6,38.95689271,-95.27493322,19,5,60,11.547,0.008,3.853,3.849,3.845,0.1,0.5,0,-1.6,-1.5,-174.1,185.9,1024,1024,1024,1024,1024,,,,,
68,526.1,8m 46.1s,38.95689641,-95.27492757,P-GPS,3.9,1.2,4.3,1.3,1.4,0.6,1.5,0.7,2.1,0.6,38.95689271,-95.27493322,19,5,60,11.547,0.008,3.853,3.849,3.845,0.1,0.6,0,-1.6,1.5,-174.2,185.8,1024,1024,1024,1024,1024,,,,,
69,526.2,8m 46.2s,38.95689664,-95.2749268,P-GPS,3.9,1.2,4.3,1.3,1.4,0.6,1.5,0.7,2.3,0.7,38.95689271,-95.27493322,19,5,60,11.547,0.008,3.853,3.849,3.845,0.1,0.6,0,-2.3,4.9,-174.3,185.7,1024,1093,1024,1024,1024,,,,,
70,526.3,8m 46.3s,38.95689686,-95.27492615,P-GPS,3.9,1.2,4.3,1.3,1.1,0.5,1.5,0.7,2.5,0.8,38.95689271,-95.27493322,19,5,60,11.547,0.008,3.853,3.849,3.845,0.1,0.5,0,-3.2,6.8,-174.3,185.7,1024,1082,1024,1024,1024,,,,,
71,526.4,8m 46.4s,38.95689714,-95.27492567,P-GPS,3.9,1.2,4.3,1.3,0.7,0.3,0.0,0.0,2.7,0.8,38.95689271,-95.27493322,19,5,60,11.547,0.008,3.853,3.849,3.845,0.1,0.3,0,-2.6,3.6,-174.1,185.9,1024,1024,1024,1024,1024,,,,,
72,526.5,8m 46.5s,38.95689738,-95.2749253,P-GPS,3.9,1.2,4.3,1.3,0.5,0.2,1.5,0.7,2.8,0.9,38.95689271,-95.27493322,19,5,60,11.547,0.008,3.853,3.849,3.845,0.1,0.2,0,-2.2,2,-174.2,185.8,1024,1024,1024,1024,1024,,,,,
73,526.6,8m 46.6s,38.95689765,-95.27492507,P-GPS,3.9,1.2,4.3,1.3,0.7,0.3,0.0,0.0,2.9,0.9,38.95689271,-95.27493322,19,5,60,11.547,0.008,3.853,3.849,3.845,0.1,0.3,0,-2,1.5,-174.1,185.9,1024,1024,1024,1024,924,,,,,
74,526.7,8m 46.7s,38.95689789,-95.27492486,P-GPS,3.9,1.2,4.3,1.3,0.5,0.2,0.0,0.0,3.0,0.9,38.95689271,-95.27493322,19,5,60,11.547,0.008,3.853,3.849,3.845,0.1,0.2,0,-2.7,2.5,-174.2,185.8,1024,1024,1024,1024,766,,,,,
75,526.8,8m 46.8s,38.9568981,-95.27492475,P-GPS,3.9,1.2,4.3,1.3,0.5,0.2,0.0,0.0,3.1,0.9,38.95689271,-95.27493322,19,5,60,11.547,0.008,3.853,3.849,3.845,0.1,0.2,0,-3.3,2.9,-174.3,185.7,1024,1024,1024,1024,720,,,,,
76,526.9,8m 46.9s,38.95689826,-95.27492468,P-GPS,3.9,1.2,4.3,1.3,0.3,0.1,0.0,0.0,3.1,1.0,38.95689271,-95.27493322,19,5,60,11.547,0.008,3.853,3.849,3.845,0.1,0.1,0,-3.5,2.4,-174.2,185.8,1024,1024,1024,1024,484,,,,,
77,527,8m 47s,38.95689839,-95.27492469,P-GPS,3.6,1.1,4.3,1.3,0.0,0.0,0.0,0.0,3.2,1.0,38.95689271,-95.27493322,19,5,60,11.547,0.008,3.853,3.849,3.845,0,0,0.2,-3.2,1.8,-174.3,185.7,1024,1024,1024,1024,461,,,,,
78,527.1,8m 47.1s,38.95689851,-95.2749247,P-GPS,3.6,1.1,3.9,1.2,0.0,0.0,0.0,0.0,3.2,1.0,38.95689271,-95.27493322,19,5,60,11.547,0.008,3.853,3.849,3.845,0,0,0.4,-2.8,1.3,-174.2,185.8,1024,1024,1024,1024,493,,,,,
79,527.2,8m 47.2s,38.95689859,-95.27492474,P-GPS,3.6,1.1,3.9,1.2,0.0,0.0,0.0,0.0,3.2,1.0,38.95689271,-95.27493322,19,5,60,11.547,0.008,3.853,3.849,3.845,0,0,0.5,-2.2,1.3,-174.3,185.7,1024,1024,1024,1024,640,,,,,
80,527.3,8m 47.3s,38.95689866,-95.27492477,P-GPS,3.3,1.0,3.6,1.1,0.0,0.0,0.0,0.0,3.2,1.0,38.95689271,-95.27493322,19,5,60,11.547,0.008,3.853,3.849,3.845,0,0,0.6,-2.1,1,-174.2,185.8,1024,1024,1024,1024,1024,,,,,
81,527.4,8m 47.4s,38.95689867,-95.27492479,P-GPS,3.0,0.9,3.6,1.1,0.0,0.0,0.0,0.0,3.3,1.0,38.95689271,-95.27493322,19,5,60,11.547,0.008,3.853,3.849,3.845,0,0,0.5,-2.3,0.6,-174.2,185.8,1024,1041,1024,1024,1024,,,,,
82,527.5,8m 47.5s,38.95689868,-95.27492481,P-GPS,3.0,0.9,3.3,1.0,0.0,0.0,0.0,0.0,3.2,1.0,38.95689271,-95.27493322,19,5,60,11.532,0.008,3.848,3.844,3.84,0,0,0.4,-2.2,0.5,-174.2,185.8,1024,1245,1024,1024,1024,,,,,
83,527.6,8m 47.6s,38.95689868,-95.2749248,P-GPS,2.6,0.8,3.3,1.0,0.0,0.0,0.0,0.0,3.2,1.0,38.95689271,-95.27493322,19,5,60,11.532,0.008,3.848,3.844,3.84,0,0,0.2,-2.3,0.2,-174.3,185.7,1024,1333,1024,1024,1024,,,,,
84,527.7,8m 47.7s,38.9568987,-95.2749248,P-GPS,2.6,0.8,3.3,1.0,0.0,0.0,0.0,0.0,3.2,1.0,38.95689271,-95.27493322,19,5,60,11.532,0.008,3.848,3.844,3.84,0,0,0.1,-3.3,0,-174.2,185.8,1024,1371,1024,1024,1024,,,,,
85,527.8,8m 47.8s,38.9568987,-95.27492478,P-GPS,2.6,0.8,3.3,1.0,0.0,0.0,0.0,0.0,3.2,1.0,38.95689271,-95.27493322,19,5,60,11.532,0.008,3.848,3.844,3.84,0,0,0,-5.2,0,-174.1,185.9,1024,1388,1024,1024,1024,,,,,
86,527.9,8m 47.9s,38.95689866,-95.27492477,P-GPS,2.6,0.8,3.3,1.0,0.0,0.0,0.0,0.0,3.2,1.0,38.95689271,-95.27493322,19,5,60,11.532,0.008,3.848,3.844,3.84,0,0,0,-6.6,0.1,-174.2,185.8,1024,1399,1024,1024,1024,,,,,
87,528,8m 48s,38.95689855,-95.27492469,P-GPS,2.6,0.8,3.3,1.0,0.0,0.0,0.0,0.0,3.2,1.0,38.95689271,-95.27493322,19,5,60,11.532,0.008,3.848,3.844,3.84,0,0,0,-7.5,0.1,-174.2,185.8,1024,1402,1024,1024,1024,,,,,
88,528.1,8m 48.1s,38.95689837,-95.27492463,P-GPS,2.6,0.8,3.3,1.0,0.2,0.1,0.0,0.0,3.2,1.0,38.95689271,-95.27493322,19,5,60,11.532,0.008,3.848,3.844,3.84,-0.1,0,0,-8,0.1,-174.2,185.8,1024,1402,1024,1024,1024,,,,,
89,528.2,8m 48.2s,38.9568981,-95.27492454,P-GPS,2.6,0.8,3.3,1.0,0.4,0.2,0.0,0.0,3.1,1.0,38.95689271,-95.27493322,19,5,60,11.532,0.008,3.848,3.844,3.84,-0.2,0,0,-8.4,0.1,-174.1,185.9,1024,1403,1024,1024,1024,,,,,
90,528.3,8m 48.3s,38.95689774,-95.27492448,P-GPS,3.0,0.9,3.3,1.0,0.7,0.3,0.0,0.0,3.1,0.9,38.95689271,-95.27493322,19,5,60,11.532,0.008,3.848,3.844,3.84,-0.3,0,0,-8.6,0.2,-174.1,185.9,1024,1404,1024,1024,1024,,,,,
91,528.4,8m 48.4s,38.95689731,-95.27492435,P-GPS,3.0,0.9,3.3,1.0,0.9,0.4,0.0,0.0,3.0,0.9,38.95689271,-95.27493322,19,5,60,11.526,0.005,3.844,3.843,3.839,-0.4,0,0,-8.9,0.3,-174.1,185.9,1024,1404,1024,1024,1024,,,,,
92,528.5,8m 48.5s,38.95689678,-95.27492425,P-GPS,3.0,0.9,3.3,1.0,1.1,0.5,0.0,0.0,3.0,0.9,38.95689271,-95.27493322,19,5,60,11.526,0.005,3.844,3.843,3.839,-0.5,0,0,-9,0.4,-174,186,1024,1404,1024,1024,1024,,,,,
93,528.6,8m 48.6s,38.95689614,-95.27492408,P-GPS,3.0,0.9,3.3,1.0,1.3,0.6,1.5,0.7,2.9,0.9,38.95689271,-95.27493322,19,5,60,11.526,0.005,3.844,3.843,3.839,-0.6,0,0,-9.1,0.4,-174,186,1024,1403,1024,1024,1024,,,,,
94,528.7,8m 48.7s,38.9568954,-95.27492396,P-GPS,3.0,0.9,3.3,1.0,1.6,0.7,1.8,0.8,2.8,0.9,38.95689271,-95.27493322,19,5,60,11.526,0.005,3.844,3.843,3.839,-0.7,0,0,-9.3,0.3,-174,186,1024,1282,1024,1024,1024,,,,,
95,528.8,8m 48.8s,38.95689455,-95.27492378,P-GPS,3.0,0.9,3.3,1.0,1.8,0.8,1.8,0.8,2.8,0.8,38.95689271,-95.27493322,19,5,60,11.526,0.005,3.844,3.843,3.839,-0.8,0,0,-9.2,0.3,-174,186,1024,1024,1024,1024,1024,,,,,
96,528.9,8m 48.9s,38.95689359,-95.27492366,P-GPS,3.0,0.9,3.3,1.0,2.0,0.9,2.1,0.9,2.8,0.8,38.95689271,-95.27493322,19,5,60,11.526,0.005,3.844,3.843,3.839,-0.9,0,0,-7.1,0.5,-174,186,1024,1024,1024,1024,1024,,,,,
97,529,8m 49s,38.95689258,-95.27492341,P-GPS,3.0,0.9,3.3,1.0,2.2,1.0,2.4,1.1,2.8,0.8,38.95689271,-95.27493322,19,5,60,11.526,0.005,3.844,3.843,3.839,-1,0,0,-2.1,0.6,-174,186,1024,1024,1024,1024,1024,,,,,
98,529.1,8m 49.1s,38.95689157,-95.27492322,P-GPS,3.0,0.9,3.3,1.0,2.2,1.0,2.6,1.2,2.9,0.9,38.95689271,-95.27493322,19,5,60,11.526,0.005,3.844,3.843,3.839,-1,0,0,5,0.6,-174,186,1024,1024,1024,1024,1024,,,,,
99,529.2,8m 49.2s,38.95689067,-95.27492297,P-GPS,3.0,0.9,3.3,1.0,1.8,0.8,2.1,0.9,3.0,0.9,38.95689271,-95.27493322,19,5,60,11.526,0.005,3.844,3.843,3.839,-0.8,0,0,9.9,0.9,-174.1,185.9,1024,1024,1024,1024,1024,,,,,
100,529.3,8m 49.3s,38.95688994,-95.27492279,P-GPS,3.0,0.9,3.3,1.0,1.3,0.6,2.1,0.9,3.1,1.0,38.95689271,-95.27493322,19,5,60,11.526,0.005,3.844,3.843,3.839,-0.6,0,0,9.7,0.1,-174.2,185.8,1024,1179,1024,1024,1024,,,,,
101,529.4,8m 49.4s,38.95688951,-95.27492252,P-GPS,2.6,0.8,3.3,1.0,1.3,0.6,1.5,0.7,3.3,1.0,38.95689271,-95.27493322,19,5,60,11.526,0.005,3.844,3.843,3.839,-0.4,0,0,7.2,0.1,-174.3,185.7,1024,1275,1024,1024,1024,,,,,
102,529.5,8m 49.5s,38.95688924,-95.27492226,P-GPS,2.6,0.8,3.3,1.0,0.7,0.3,0.0,0.0,3.4,1.0,38.95689271,-95.27493322,19,5,60,11.521,0.009,3.845,3.84,3.836,-0.3,0,0,1.5,0,-174.2,185.8,1024,1242,1024,1024,1024,,,,,
103,529.6,8m 49.6s,38.95688917,-95.274922,P-GPS,2.6,0.8,3.3,1.0,0.4,0.2,0.0,0.0,3.5,1.1,38.95689271,-95.27493322,19,5,60,11.521,0.009,3.845,3.84,3.836,-0.2,0,0,-1.6,0.2,-174.3,185.7,1024,1086,1024,1024,1024,,,,,
104,529.7,8m 49.7s,38.95688908,-95.27492179,P-GPS,2.6,0.8,3.3,1.0,0.2,0.1,0.0,0.0,3.5,1.1,38.95689271,-95.27493322,19,5,60,11.521,0.009,3.845,3.84,3.836,-0.1,0,0,-2.3,0.2,-174.3,185.7,1024,1024,1024,1024,1024,,,,,
105,529.8,8m 49.8s,38.95688908,-95.27492167,P-GPS,2.6,0.8,3.3,1.0,0.2,0.1,0.0,0.0,3.6,1.1,38.95689271,-95.27493322,19,5,60,11.521,0.009,3.845,3.84,3.836,-0.1,0,0,-1.1,0.2,-174.3,185.7,1024,1024,1024,1024,1024,,,,,
106,529.9,8m 49.9s,38.95688906,-95.27492156,P-GPS,2.6,0.8,3.3,1.0,0.2,0.1,0.0,0.0,3.6,1.1,38.95689271,-95.27493322,19,5,60,11.521,0.009,3.845,3.84,3.836,-0.1,0,0,-0.3,0,-174.3,185.7,1024,1276,1024,1024,1024,,,,,
107,530,8m 50s,38.95688906,-95.27492154,P-GPS,2.6,0.8,3.3,1.0,0.2,0.1,0.0,0.0,3.6,1.1,38.95689271,-95.27493322,19,5,60,11.521,0.009,3.845,3.84,3.836,-0.1,0,0,0.3,0,-174.2,185.8,1024,1367,1024,1024,1024,,,,,
108,530.1,8m 50.1s,38.95688904,-95.27492149,P-GPS,2.6,0.8,3.3,1.0,0.0,0.0,0.0,0.0,3.6,1.1,38.95689271,-95.27493322,19,5,60,11.521,0.009,3.845,3.84,3.836,0,0,0,-1.1,0.3,-174.1,185.9,1024,1369,1024,1024,1024,,,,,
109,530.2,8m 50.2s,38.95688904,-95.27492155,P-GPS,2.6,0.8,3.3,1.0,0.0,0.0,0.0,0.0,3.6,1.1,38.95689271,-95.27493322,19,5,60,11.521,0.009,3.845,3.84,3.836,0,0,0,-4.8,0.3,-174.2,185.8,1024,1343,1024,1024,1024,,,,,
110,530.3,8m 50.3s,38.95688898,-95.27492159,P-GPS,2.6,0.8,3.3,1.0,0.2,0.1,0.0,0.0,3.6,1.1,38.95689271,-95.27493322,19,5,60,11.521,0.009,3.845,3.84,3.836,-0.1,0,0,-5.5,0.5,-174.3,185.7,1024,1336,1024,1024,1024,,,,,
111,530.4,8m 50.4s,38.95688886,-95.27492172,P-GPS,2.6,0.8,3.3,1.0,0.4,0.2,0.0,0.0,3.6,1.1,38.95689271,-95.27493322,19,5,60,11.521,0.009,3.845,3.84,3.836,-0.2,0,0,-5.4,0.5,-174.2,185.8,1024,1351,1024,1024,1024,,,,,
112,530.5,8m 50.5s,38.95688867,-95.27492179,P-GPS,2.6,0.8,3.3,1.0,0.4,0.2,0.0,0.0,3.6,1.1,38.95689271,-95.27493322,19,5,60,11.521,0.009,3.845,3.84,3.836,-0.2,0,0,-5.1,0.7,-174.3,185.7,1024,1350,1024,1024,1024,,,,,
113,530.6,8m 50.6s,38.95688841,-95.27492196,P-GPS,2.6,0.8,3.3,1.0,0.4,0.2,0.0,0.0,3.6,1.1,38.95689271,-95.27493322,19,5,60,11.521,0.009,3.845,3.84,3.836,-0.2,0,0,-5.6,0.5,-174.3,185.7,1024,1337,1024,1024,1024,,,,,
114,530.7,8m 50.7s,38.95688809,-95.2749221,P-GPS,2.6,0.8,3.3,1.0,0.7,0.3,1.1,0.5,3.6,1.1,38.95689271,-95.27493322,19,5,60,11.521,0.009,3.845,3.84,3.836,-0.3,0,0,-5.8,0.1,-174.3,185.7,1024,1136,1024,1024,1024,,,,,
115,530.8,8m 50.8s,38.9568877,-95.27492226,P-GPS,2.6,0.8,3.3,1.0,0.9,0.4,0.0,0.0,3.6,1.1,38.95689271,-95.27493322,19,5,60,11.521,0.009,3.845,3.84,3.836,-0.4,0,0,-6,0,-174.2,185.8,1024,1024,1024,1024,1018,,,,,
116,530.9,8m 50.9s,38.95688726,-95.27492237,P-GPS,2.6,0.8,3.3,1.0,0.9,0.4,1.1,0.5,3.7,1.1,38.95689271,-95.27493322,19,5,60,11.521,0.009,3.845,3.84,3.836,-0.4,0,0,-3.3,0.1,-174.3,185.7,1024,1024,1024,1024,692,,,,,
117,531,8m 51s,38.95688675,-95.27492246,P-GPS,2.6,0.8,3.3,1.0,0.9,0.4,0.0,0.0,3.7,1.1,38.95689271,-95.27493322,19,5,60,11.521,0.009,3.845,3.84,3.836,-0.4,0,0,-0.1,0.1,-174.2,185.8,1024,1024,1024,1024,695,,,,,
118,531.1,8m 51.1s,38.95688627,-95.27492251,P-GPS,2.6,0.8,3.3,1.0,0.9,0.4,1.1,0.5,3.8,1.2,38.95689271,-95.27493322,19,5,60,11.521,0.009,3.845,3.84,3.836,-0.4,0,0,2.7,0,-174.2,185.8,1024,1024,1024,1024,703,,,,,
119,531.2,8m 51.2s,38.95688587,-95.27492249,P-GPS,2.6,0.8,3.3,1.0,0.7,0.3,1.5,0.7,3.9,1.2,38.95689271,-95.27493322,19,5,60,11.521,0.009,3.845,3.84,3.836,-0.3,0,0.2,4.3,0,-174.2,185.8,1024,1024,1024,1024,704,,,,,
120,531.3,8m 51.3s,38.95688556,-95.27492244,P-GPS,2.6,0.8,3.0,0.9,0.4,0.2,0.0,0.0,4.0,1.2,38.95689271,-95.27493322,19,5,60,11.521,0.009,3.845,3.84,3.836,-0.2,0,0.3,3.9,0.4,-174.2,185.8,1024,1024,1024,1024,734,,,,,
121,531.4,8m 51.4s,38.95688541,-95.27492234,P-GPS,2.3,0.7,3.0,0.9,0.2,0.1,1.5,0.7,4.1,1.2,38.95689271,-95.27493322,19,5,60,11.521,0.009,3.845,3.84,3.836,-0.1,0,0.3,2.7,0.6,-174.1,185.9,1024,1024,1024,1024,734,,,,,
122,531.5,8m 51.5s,38.95688534,-95.27492224,P-GPS,2.3,0.7,3.0,0.9,0.0,0.0,0.0,0.0,4.1,1.3,38.95689271,-95.27493322,19,5,60,11.511,0.008,3.841,3.837,3.833,0,0,0.3,1,0.4,-174.1,185.9,1024,1024,1024,1024,726,,,,,
123,531.6,8m 51.6s,38.95688539,-95.27492213,P-GPS,2.3,0.7,3.0,0.9,0.0,0.0,0.0,0.0,4.1,1.3,38.95689271,-95.27493322,19,5,60,11.511,0.008,3.841,3.837,3.833,0,0,0.3,0,0.5,-174.2,185.8,1024,1024,1024,1024,662,,,,,
124,531.7,8m 51.7s,38.95688547,-95.27492203,P-GPS,2.0,0.6,2.6,0.8,0.0,0.0,0.0,0.0,4.1,1.3,38.95689271,-95.27493322,19,5,60,11.511,0.008,3.841,3.837,3.833,0,0,0.3,-0.8,0.4,-174.3,185.7,1024,1024,1024,1024,663,,,,,
125,531.8,8m 51.8s,38.95688559,-95.27492193,P-GPS,2.0,0.6,2.6,0.8,0.0,0.0,0.0,0.0,4.1,1.3,38.95689271,-95.27493322,19,5,60,11.511,0.008,3.841,3.837,3.833,0,0,0.3,-1,0.9,-174.3,185.7,1024,1024,1024,1024,664,,,,,
126,531.9,8m 51.9s,38.95688569,-95.27492185,P-GPS,2.0,0.6,2.6,0.8,0.2,0.1,0.0,0.0,4.1,1.3,38.95689271,-95.27493322,19,5,60,11.511,0.008,3.841,3.837,3.833,0.1,0,0.2,-1.9,0.4,-174.3,185.7,1024,1024,1024,1024,698,,,,,
127,532,8m 52s,38.95688582,-95.27492181,P-GPS,1.6,0.5,2.6,0.8,0.0,0.0,0.0,0.0,4.1,1.3,38.95689271,-95.27493322,19,5,60,11.511,0.008,3.841,3.837,3.833,0,0,0.2,-2.2,0.2,-174.5,185.5,1024,1024,1024,1024,960,,,,,
128,532.1,8m 52.1s,38.95688592,-95.27492177,P-GPS,1.6,0.5,2.3,0.7,0.2,0.1,0.0,0.0,4.1,1.2,38.95689271,-95.27493322,19,5,60,11.511,0.008,3.841,3.837,3.833,0.1,0,0.2,-2.2,0.2,-174.5,185.5,1024,1024,1024,1024,1024,,,,,
129,532.2,8m 52.2s,38.95688603,-95.27492175,P-GPS,1.6,0.5,2.3,0.7,0.2,0.1,0.0,0.0,4.1,1.2,38.95689271,-95.27493322,19,5,60,11.511,0.008,3.841,3.837,3.833,0.1,0,0.2,-2.2,0.4,-174.4,185.6,1024,1024,1024,1024,1024,,,,,
130,532.3,8m 52.3s,38.9568861,-95.27492171,P-GPS,1.6,0.5,2.3,0.7,0.0,0.0,0.0,0.0,4.1,1.2,38.95689271,-95.27493322,19,5,60,11.511,0.008,3.841,3.837,3.833,0,0,0.1,-2.3,0.7,-174.4,185.6,1024,1024,1024,1024,1024,,,,,
131,532.4,8m 52.4s,38.95688616,-95.27492174,P-GPS,1.3,0.4,2.3,0.7,0.0,0.0,0.0,0.0,4.0,1.2,38.95689271,-95.27493322,19,5,60,11.509,0.008,3.84,3.837,3.832,0,0,0,-2.4,-0.2,-174.4,185.6,1024,1024,1024,1024,1024,,,,,
132,532.5,8m 52.5s,38.9568862,-95.27492177,P-GPS,1.3,0.4,2.3,0.7,0.0,0.0,0.0,0.0,4.0,1.2,38.95689271,-95.27493322,19,5,60,11.509,0.008,3.84,3.837,3.832,0,0,0,-2.7,-0.5,-174.2,185.8,1024,1024,1024,1024,1024,,,,,
133,532.6,8m 52.6s,38.95688622,-95.27492181,P-GPS,1.3,0.4,2.0,0.6,0.0,0.0,0.0,0.0,4.0,1.2,38.95689271,-95.27493322,19,5,60,11.509,0.008,3.84,3.837,3.832,0,0,0,-2.1,0.1,-174.1,185.9,1024,1024,1024,1024,1024,,,,,
134,532.7,8m 52.7s,38.95688623,-95.27492182,P-GPS,1.3,0.4,2.3,0.7,0.0,0.0,1.1,0.5,4.0,1.2,38.95689271,-95.27493322,19,5,60,11.509,0.008,3.84,3.837,3.832,0,0,0,-2.1,0.3,-174.1,185.9,1024,1024,1024,1024,875,,,,,
135,532.8,8m 52.8s,38.95688625,-95.27492185,P-GPS,1.3,0.4,2.3,0.7,0.0,0.0,0.0,0.0,4.0,1.2,38.95689271,-95.27493322,19,5,60,11.509,0.008,3.84,3.837,3.832,0,0,0,-2.4,0.2,-174.1,185.9,1024,1024,1024,1024,851,,,,,
136,532.9,8m 52.9s,38.95688625,-95.27492186,P-GPS,1.3,0.4,2.0,0.6,0.0,0.0,0.0,0.0,4.0,1.2,38.95689271,-95.27493322,19,5,60,11.509,0.008,3.84,3.837,3.832,0,0,0,-2.5,0.4,-174.2,185.8,1024,1024,1024,1024,792,,,,,
137,533,8m 53s,38.95688628,-95.27492187,P-GPS,1.3,0.4,2.0,0.6,0.0,0.0,0.0,0.0,4.0,1.2,38.95689271,-95.27493322,19,5,60,11.509,0.008,3.84,3.837,3.832,0,0,0,-2.4,1,-174.2,185.8,1024,1024,1024,1024,886,,,,,
138,533.1,8m 53.1s,38.95688629,-95.27492188,P-GPS,1.3,0.4,2.3,0.7,0.0,0.0,0.0,0.0,4.0,1.2,38.95689271,-95.27493322,19,5,60,11.509,0.008,3.84,3.837,3.832,0,0,0,-2.5,0.7,-174.2,185.8,1024,1024,1024,1024,1024,,,,,
139,533.2,8m 53.2s,38.9568863,-95.2749219,P-GPS,1.3,0.4,2.0,0.6,0.0,0.0,0.0,0.0,4.0,1.2,38.95689271,-95.27493322,19,5,60,11.509,0.008,3.84,3.837,3.832,0,0,0.1,-2.2,0.7,-174.2,185.8,1058,1024,1024,1024,1024,,,,,
140,533.3,8m 53.3s,38.95688628,-95.27492194,P-GPS,1.3,0.4,2.0,0.6,0.0,0.0,0.0,0.0,4.0,1.2,38.95689271,-95.27493322,19,5,60,11.509,0.008,3.84,3.837,3.832,0,0,0.1,-2.2,0.5,-174.1,185.9,1058,1024,1024,1024,1024,,,,,
141,533.4,8m 53.4s,38.95688627,-95.27492196,P-GPS,1.3,0.4,2.0,0.6,0.0,0.0,0.0,0.0,4.0,1.2,38.95689271,-95.27493322,19,5,60,11.509,0.008,3.84,3.837,3.832,0,0,0,-1.8,0.5,-174.1,185.9,1058,1024,1024,1024,1024,,,,,
142,533.5,8m 53.5s,38.95688625,-95.27492197,P-GPS,1.3,0.4,2.0,0.6,0.0,0.0,0.0,0.0,4.0,1.2,38.95689271,-95.27493322,19,5,60,11.509,0.008,3.84,3.837,3.832,0,0,0,-1.5,0.5,-174.1,185.9,1060,1024,1024,1024,1024,,,,,
143,533.6,8m 53.6s,38.95688627,-95.27492198,P-GPS,1.3,0.4,2.0,0.6,0.0,0.0,0.0,0.0,4.0,1.2,38.95689271,-95.27493322,19,5,60,11.509,0.008,3.84,3.837,3.832,0,0,0,-1.4,0.4,-174.1,185.9,1059,1024,1024,1024,1024,,,,,
144,533.7,8m 53.7s,38.95688629,-95.274922,P-GPS,1.3,0.4,2.0,0.6,0.0,0.0,0.0,0.0,4.0,1.2,38.95689271,-95.27493322,19,5,60,11.509,0.008,3.84,3.837,3.832,0,0,0,-1.3,0.4,-174.2,185.8,1024,1061,1024,1024,1024,,,,,
145,533.8,8m 53.8s,38.95688631,-95.27492203,P-GPS,1.3,0.4,2.0,0.6,0.0,0.0,0.0,0.0,3.9,1.2,38.95689271,-95.27493322,19,5,60,11.509,0.008,3.84,3.837,3.832,0,0,0,-1.5,0.3,-174.2,185.8,1024,1073,1024,1024,1083,,,,,
146,533.9,8m 53.9s,38.95688631,-95.27492207,P-GPS,1.3,0.4,2.0,0.6,0.0,0.0,0.0,0.0,3.9,1.2,38.95689271,-95.27493322,19,5,60,11.509,0.008,3.84,3.837,3.832,0,0,0,-1.5,0.2,-174.2,185.8,1024,1060,1024,1024,1232,,,,,
147,534,8m 54s,38.95688632,-95.27492206,P-GPS,1.3,0.4,2.0,0.6,0.0,0.0,0.0,0.0,3.9,1.2,38.95689271,-95.27493322,19,5,60,11.509,0.008,3.84,3.837,3.832,0,0,0,-1.6,0.2,-174.2,185.8,1024,1052,1024,1024,1198,,,,,
148,534.1,8m 54.1s,38.95688633,-95.27492204,P-GPS,1.3,0.4,2.0,0.6,0.0,0.0,0.0,0.0,3.9,1.2,38.95689271,-95.27493322,19,5,60,11.509,0.008,3.84,3.837,3.832,0,0,0,-1.5,0.3,-174.3,185.7,1024,1054,1024,1024,1106,,,,,
149,534.2,8m 54.2s,38.95688637,-95.27492204,P-GPS,1.3,0.4,2.0,0.6,0.0,0.0,0.0,0.0,3.9,1.2,38.95689271,-95.27493322,19,5,60,11.509,0.008,3.84,3.837,3.832,0,0,-0.1,-1.5,0.4,-174.4,185.6,1024,1166,1024,1024,1024,,,,,
150,534.3,8m 54.3s,38.95688641,-95.27492205,P-GPS,1.3,0.4,2.0,0.6,0.0,0.0,0.0,0.0,3.9,1.2,38.95689271,-95.27493322,19,5,60,11.509,0.008,3.84,3.837,3.832,0,0,-0.1,-1.7,0.2,-174.3,185.7,1024,1246,1024,1024,1024,,,,,
151,534.4,8m 54.4s,38.95688648,-95.27492203,P-GPS,1.3,0.4,2.0,0.6,0.0,0.0,0.0,0.0,3.9,1.2,38.95689271,-95.27493322,19,5,60,11.499,0.006,3.836,3.833,3.83,0,0,-0.1,-2,0.1,-174.3,185.7,1024,1256,1024,1024,1024,,,,,
152,534.5,8m 54.5s,38.95688654,-95.274922,P-GPS,1.3,0.4,2.0,0.6,0.0,0.0,0.0,0.0,3.9,1.2,38.95689271,-95.27493322,19,5,60,11.499,0.006,3.836,3.833,3.83,0,0,0,-3,0.1,-174.3,185.7,1024,1255,1024,1024,1024,,,,,
153,534.6,8m 54.6s,38.95688663,-95.27492196,P-GPS,1.6,0.5,2.0,0.6,0.0,0.0,0.0,0.0,3.9,1.2,38.95689271,-95.27493322,19,5,60,11.499,0.006,3.836,3.833,3.83,0,0,0,-3.4,0,-174.3,185.7,1024,1255,1024,1024,1024,,,,,
154,534.7,8m 54.7s,38.95688669,-95.27492194,P-GPS,1.6,0.5,2.0,0.6,0.0,0.0,0.0,0.0,3.9,1.2,38.95689271,-95.27493322,19,5,60,11.499,0.006,3.836,3.833,3.83,0,0,0,-3.7,0.1,-174.2,185.8,1024,1257,1024,1024,1024,,,,,
155,534.8,8m 54.8s,38.95688673,-95.27492188,P-GPS,1.6,0.5,2.0,0.6,0.0,0.0,0.0,0.0,3.9,1.2,38.95689271,-95.27493322,19,5,60,11.499,0.006,3.836,3.833,3.83,0,0,0,-3.9,0.2,-174.1,185.9,1024,1257,1024,1024,1024,,,,,
156,534.9,8m 54.9s,38.95688672,-95.27492184,P-GPS,1.3,0.4,2.0,0.6,0.0,0.0,0.0,0.0,3.9,1.2,38.95689271,-95.27493322,19,5,60,11.499,0.006,3.836,3.833,3.83,0,0,0,-4,0.2,-174.1,185.9,1024,1257,1024,1024,1024,,,,,
157,535,8m 55s,38.95688671,-95.2749218,P-GPS,1.3,0.4,2.0,0.6,0.0,0.0,0.0,0.0,3.9,1.2,38.95689271,-95.27493322,19,5,60,11.499,0.006,3.836,3.833,3.83,0,0,0,-4.1,0,-174.1,185.9,1024,1258,1024,1024,1024,,,,,
158,535.1,8m 55.1s,38.95688665,-95.27492177,P-GPS,1.3,0.4,2.0,0.6,0.0,0.0,0.0,0.0,3.9,1.2,38.95689271,-95.27493322,19,5,60,11.499,0.006,3.836,3.833,3.83,0,0,0,-4,0,-174.1,185.9,1024,1304,1024,1024,1024,,,,,
159,535.2,8m 55.2s,38.95688659,-95.27492172,P-GPS,1.3,0.4,2.0,0.6,0.2,0.1,0.0,0.0,4.0,1.2,38.95689271,-95.27493322,19,5,60,11.499,0.006,3.836,3.833,3.83,-0.1,0,0,-4.1,0.1,-174,186,1024,1351,1024,1024,1024,,,,,
160,535.3,8m 55.3s,38.95688648,-95.27492167,P-GPS,1.3,0.4,2.0,0.6,0.2,0.1,0.0,0.0,4.0,1.2,38.95689271,-95.27493322,19,5,60,11.499,0.006,3.836,3.833,3.83,-0.1,0,0,-4.9,0.3,-174.1,185.9,1024,1354,1024,1024,1024,,,,,
161,535.4,8m 55.4s,38.95688636,-95.27492158,P-GPS,1.3,0.4,2.0,0.6,0.4,0.2,0.0,0.0,4.0,1.2,38.95689271,-95.27493322,19,5,60,11.499,0.006,3.836,3.833,3.83,-0.2,0,0,-5.8,0.5,-174.1,185.9,1024,1352,1024,1024,1024,,,,,
162,535.5,8m 55.5s,38.95688617,-95.27492151,P-GPS,1.3,0.4,2.0,0.6,0.4,0.2,0.0,0.0,4.1,1.2,38.95689271,-95.27493322,19,5,60,11.492,0.01,3.836,3.83,3.826,-0.2,0,0,-6.5,0.5,-174.1,185.9,1024,1266,1024,1024,1024,,,,,
163,535.6,8m 55.6s,38.95688592,-95.27492143,P-GPS,1.3,0.4,2.0,0.6,0.7,0.3,0.0,0.0,4.2,1.3,38.95689271,-95.27493322,19,5,60,11.492,0.01,3.836,3.83,3.826,-0.3,0,0,-6.4,0.6,-174.1,185.9,1024,1024,1024,1024,1024,,,,,
164,535.7,8m 55.7s,38.95688559,-95.27492139,P-GPS,1.3,0.4,2.0,0.6,0.9,0.4,0.0,0.0,4.2,1.3,38.95689271,-95.27493322,19,5,60,11.492,0.01,3.836,3.83,3.826,-0.4,0,0,-5,0.5,-174.1,185.9,1312,1024,1024,1024,1024,,,,,
165,535.8,8m 55.8s,38.95688521,-95.27492132,P-GPS,1.3,0.4,2.0,0.6,0.9,0.4,1.1,0.5,4.3,1.3,38.95689271,-95.27493322,19,5,60,11.492,0.01,3.836,3.83,3.826,-0.4,0,0,-3.1,0.3,-174.2,185.8,1430,1024,1024,1024,1024,,,,,
166,535.9,8m 55.9s,38.95688481,-95.27492126,P-GPS,1.3,0.4,2.3,0.7,0.9,0.4,0.0,0.0,4.5,1.4,38.95689271,-95.27493322,19,5,60,11.492,0.01,3.836,3.83,3.826,-0.4,0,0,-1.6,2.7,-174.2,185.8,1427,1024,1024,1024,1024,,,,,
167,536,8m 56s,38.95688443,-95.27492117,P-GPS,1.3,0.4,2.3,0.7,0.9,0.4,0.0,0.0,4.6,1.4,38.95689271,-95.27493322,19,5,60,11.492,0.01,3.836,3.83,3.826,-0.4,0,0,-1.5,6.5,-174.2,185.8,1436,1024,1024,1024,1024,,,,,
168,536.1,8m 56.1s,38.95688406,-95.27492119,P-GPS,1.3,0.4,2.3,0.7,0.9,0.4,0.0,0.0,4.7,1.4,38.95689271,-95.27493322,19,5,60,11.492,0.01,3.836,3.83,3.826,-0.4,-0.1,0,-1.8,7.6,-174.2,185.8,1436,1024,1024,1024,1024,,,,,
169,536.2,8m 56.2s,38.95688374,-95.2749213,P-GPS,1.3,0.4,2.3,0.7,0.9,0.4,0.0,0.0,4.7,1.4,38.95689271,-95.27493322,19,5,60,11.492,0.01,3.836,3.83,3.826,-0.3,-0.2,0,-1.8,8.9,-174.2,185.8,1438,1024,1024,1024,1024,,,,,
170,536.3,8m 56.3s,38.95688344,-95.27492158,P-GPS,1.3,0.4,2.3,0.7,0.9,0.4,0.0,0.0,4.7,1.4,38.95689271,-95.27493322,19,5,60,11.492,0.01,3.836,3.83,3.826,-0.3,-0.3,0,-1.7,9.3,-174.3,185.7,1446,1024,1024,1024,1024,,,,,
171,536.4,8m 56.4s,38.95688316,-95.27492204,P-GPS,1.3,0.4,2.3,0.7,1.3,0.6,1.5,0.7,4.7,1.4,38.95689271,-95.27493322,20,5,60,11.488,0.009,3.834,3.829,3.825,-0.3,-0.5,0,-1.6,9.9,-174.3,185.7,1351,1024,1024,1024,1024,,,,,
172,536.5,8m 56.5s,38.95688288,-95.2749227,P-GPS,1.3,0.4,2.3,0.7,1.4,0.6,1.5,0.7,4.7,1.4,38.95689271,-95.27493322,20,5,60,11.488,0.009,3.834,3.829,3.825,-0.2,-0.6,0,-1.7,10.3,-174.5,185.5,1192,1024,1024,1024,1024,,,,,
173,536.6,8m 56.6s,38.95688263,-95.2749236,P-GPS,1.3,0.4,2.3,0.7,1.8,0.8,1.8,0.8,4.6,1.4,38.95689271,-95.27493322,20,5,60,11.488,0.009,3.834,3.829,3.825,-0.2,-0.8,0,-1.8,8.5,-174.6,185.4,1024,1024,1024,1024,1024,,,,,
174,536.7,8m 56.7s,38.9568824,-95.27492467,P-GPS,1.6,0.5,2.3,0.7,2.1,0.9,2.1,0.9,4.5,1.4,38.95689271,-95.27493322,20,5,60,11.488,0.009,3.834,3.829,3.825,-0.2,-0.9,0,-1.5,4.8,-174.5,185.5,1023,1024,1024,1024,1024,,,,,
175,536.8,8m 56.8s,38.95688211,-95.27492587,P-GPS,1.6,0.5,2.3,0.7,2.3,1.0,2.1,0.9,4.4,1.3,38.95689271,-95.27493322,20,5,60,11.488,0.009,3.834,3.829,3.825,-0.2,-1,0,-1.2,2.1,-174.6,185.4,996,1024,1024,1024,1024,,,,,
176,536.9,8m 56.9s,38.95688182,-95.2749271,P-GPS,1.6,0.5,2.3,0.7,2.3,1.0,2.4,1.1,4.3,1.3,38.95689271,-95.27493322,20,5,60,11.488,0.009,3.834,3.829,3.825,-0.2,-1,0,0.4,-4.7,-174.5,185.5,955,1024,1024,1024,1024,,,,,
177,537,8m 57s,38.95688149,-95.27492826,P-GPS,1.6,0.5,2.3,0.7,2.0,0.9,2.4,1.1,4.3,1.3,38.95689271,-95.27493322,20,5,60,11.488,0.009,3.834,3.829,3.825,-0.1,-0.9,0,1.6,-9.2,-174.6,185.4,930,1024,1024,1024,1024,,,,,
178,537.1,8m 57.1s,38.9568812,-95.2749292,P-GPS,1.3,0.4,2.3,0.7,1.6,0.7,2.1,0.9,4.3,1.3,38.95689271,-95.27493322,20,5,60,11.488,0.009,3.834,3.829,3.825,-0.1,-0.7,0,0,-4.4,-174.7,185.3,894,1024,1024,1024,1024,,,,,
179,537.2,8m 57.2s,38.9568809,-95.27492993,P-GPS,1.3,0.4,2.3,0.7,1.1,0.5,1.8,0.8,4.4,1.3,38.95689271,-95.27493322,20,5,60,11.488,0.009,3.834,3.829,3.825,-0.1,-0.5,0,-0.1,-3.5,-174.5,185.5,844,1024,1024,1024,1024,,,,,
180,537.3,8m 57.3s,38.95688063,-95.27493053,P-GPS,1.3,0.4,2.3,0.7,1.1,0.5,1.1,0.5,4.5,1.4,38.95689271,-95.27493322,20,5,60,11.488,0.009,3.834,3.829,3.825,-0.1,-0.5,0,-0.6,-2.9,-174.3,185.7,861,1024,1024,1024,1024,,,,,
181,537.4,8m 57.4s,38.95688036,-95.27493096,P-GPS,1.3,0.4,2.3,0.7,0.9,0.4,1.5,0.7,4.6,1.4,38.95689271,-95.27493322,20,5,60,11.488,0.009,3.834,3.829,3.825,-0.1,-0.4,0,-0.7,-3,-174.2,185.8,935,1024,1024,1024,1024,,,,,
182,537.5,8m 57.5s,38.9568801,-95.27493132,P-GPS,1.3,0.4,2.3,0.7,0.9,0.4,1.5,0.7,4.6,1.4,38.95689271,-95.27493322,20,5,60,11.488,0.009,3.834,3.829,3.825,-0.1,-0.4,0,-0.5,-2,-174.1,185.9,940,1024,1024,1024,1024,,,,,
183,537.6,8m 57.6s,38.95687988,-95.27493159,P-GPS,1.3,0.4,2.3,0.7,0.7,0.3,1.5,0.7,4.7,1.4,38.95689271,-95.27493322,19,5,60,11.488,0.009,3.834,3.829,3.825,-0.1,-0.3,0,-0.5,-0.9,-174.2,185.8,857,1024,1024,1024,1024,,,,,
184,537.7,8m 57.7s,38.95687969,-95.27493185,P-GPS,1.3,0.4,2.3,0.7,0.7,0.3,1.1,0.5,4.8,1.5,38.95689271,-95.27493322,19,5,60,11.488,0.009,3.834,3.829,3.825,0,-0.3,0,-0.2,-0.8,-174,186,776,1024,1024,1024,1024,,,,,
185,537.8,8m 57.8s,38.95687955,-95.27493208,P-GPS,1.3,0.4,2.3,0.7,0.4,0.2,0.0,0.0,4.8,1.5,38.95689271,-95.27493322,19,5,60,11.488,0.009,3.834,3.829,3.825,0,-0.2,0,-0.3,-1.6,-174.1,185.9,775,1024,1024,1024,1024,,,,,
186,537.9,8m 57.9s,38.95687943,-95.27493229,P-GPS,1.3,0.4,2.3,0.7,0.4,0.2,0.0,0.0,4.8,1.5,38.95689271,-95.27493322,19,5,60,11.488,0.009,3.834,3.829,3.825,0,-0.2,0,-0.6,-3.2,-174.1,185.9,748,1024,1024,1024,1024,,,,,
187,538,8m 58s,38.9568794,-95.27493242,P-GPS,1.3,0.4,2.3,0.7,0.2,0.1,0.0,0.0,4.9,1.5,38.95689271,-95.27493322,19,5,60,11.488,0.009,3.834,3.829,3.825,0,-0.1,0,-0.6,-4,-174.2,185.8,681,1024,1024,1024,1024,,,,,
188,538.1,8m 58.1s,38.95687937,-95.27493247,P-GPS,1.3,0.4,2.3,0.7,0.2,0.1,0.0,0.0,4.9,1.5,38.95689271,-95.27493322,19,5,60,11.488,0.009,3.834,3.829,3.825,0,-0.1,0,-0.9,-4.7,-174.1,185.9,663,1024,1024,1024,1024,,,,,
189,538.2,8m 58.2s,38.95687943,-95.27493241,P-GPS,1.3,0.4,2.3,0.7,0.0,0.0,0.0,0.0,4.8,1.5,38.95689271,-95.27493322,19,5,60,11.488,0.009,3.834,3.829,3.825,0,0,0,-1.2,-6.1,-174,186,657,1024,1024,1024,1024,,,,,
190,538.3,8m 58.3s,38.95687946,-95.27493223,P-GPS,1.6,0.5,2.3,0.7,0.0,0.0,0.0,0.0,4.8,1.5,38.95689271,-95.27493322,19,5,60,11.488,0.009,3.834,3.829,3.825,0,0,0,-1.2,-6.4,-174,186,617,1024,1024,1024,1024,,,,,
191,538.4,8m 58.4s,38.95687957,-95.27493195,P-GPS,1.6,0.5,2.3,0.7,0.4,0.2,0.0,0.0,4.8,1.5,38.95689271,-95.27493322,19,5,60,11.481,0.009,3.832,3.826,3.823,0,0.2,0,-1.2,-6.9,-174,186,549,1024,1024,1024,1024,,,,,
192,538.5,8m 58.5s,38.95687964,-95.27493154,P-GPS,1.6,0.5,2.6,0.8,0.7,0.3,0.0,0.0,4.8,1.5,38.95689271,-95.27493322,19,5,60,11.481,0.009,3.832,3.826,3.823,0,0.3,0,-1.4,-8.1,-173.9,186.1,540,1024,1024,1024,1024,,,,,
193,538.6,8m 58.6s,38.95687979,-95.27493097,P-GPS,1.6,0.5,2.6,0.8,0.9,0.4,0.0,0.0,4.8,1.4,38.95689271,-95.27493322,19,5,60,11.481,0.009,3.832,3.826,3.823,0,0.4,0,-1.7,-9.8,-174,186,574,1024,1024,1024,1024,,,,,
194,538.7,8m 58.7s,38.95687989,-95.2749302,P-GPS,1.6,0.5,2.3,0.7,1.3,0.6,1.1,0.5,4.8,1.5,38.95689271,-95.27493322,19,5,60,11.481,0.009,3.832,3.826,3.823,0,0.6,0,-1.7,-11.4,-173.9,186.1,1024,1024,1024,1024,1024,,,,,
195,538.8,8m 58.8s,38.95688005,-95.27492922,P-GPS,1.3,0.4,2.3,0.7,1.8,0.8,1.5,0.7,4.8,1.4,38.95689271,-95.27493322,19,5,60,11.481,0.009,3.832,3.826,3.823,0,0.8,0,-1.5,-11.5,-173.9,186.1,1033,1024,1024,1024,1024,,,,,
196,538.9,8m 58.9s,38.95688014,-95.27492801,P-GPS,1.3,0.4,2.3,0.7,2.2,1.0,2.1,0.9,4.8,1.5,38.95689271,-95.27493322,19,5,60,11.481,0.009,3.832,3.826,3.823,0,1,0,-1.5,-3,-174.2,185.8,1326,1024,1024,1024,1024,,,,,
197,539,8m 59s,38.9568804,-95.27492666,P-GPS,1.3,0.4,2.3,0.7,2.5,1.1,2.1,0.9,4.9,1.5,38.95689271,-95.27493322,19,5,60,11.481,0.009,3.832,3.826,3.823,0,1.1,0,-1.8,4.1,-174.1,185.9,1324,1024,1024,1024,1024,,,,,
198,539.1,8m 59.1s,38.95688062,-95.27492536,P-GPS,1.3,0.4,2.3,0.7,2.2,1.0,2.6,1.2,4.9,1.5,38.95689271,-95.27493322,19,5,60,11.481,0.009,3.832,3.826,3.823,0,1,0,-1.7,5.3,-174,186,1432,1024,1024,1024,1024,,,,,
199,539.2,8m 59.2s,38.95688097,-95.27492419,P-GPS,1.3,0.4,2.3,0.7,2.0,0.9,2.1,0.9,5.0,1.5,38.95689271,-95.27493322,19,5,60,11.481,0.009,3.832,3.826,3.823,0,0.9,0,-1.7,6.3,-174.1,185.9,1024,1024,1024,1024,1024,,,,,
200,539.3,8m 59.3s,38.95688127,-95.27492317,P-GPS,1.3,0.4,2.3,0.7,1.6,0.7,2.1,0.9,5.1,1.5,38.95689271,-95.27493322,19,5,60,11.481,0.009,3.832,3.826,3.823,0,0.7,0,-1.8,6.9,-174,186,1024,1024,1024,1024,1024,,,,,
201,539.4,8m 59.4s,38.95688166,-95.27492242,P-GPS,1.3,0.4,2.3,0.7,1.6,0.7,1.5,0.7,5.1,1.5,38.95689271,-95.27493322,19,5,60,11.481,0.009,3.832,3.826,3.823,0.1,0.6,0,-1.9,4.9,-173.9,186.1,1024,1024,1024,1024,1024,,,,,
202,539.5,8m 59.5s,38.95688199,-95.27492181,P-GPS,1.3,0.4,2.3,0.7,1.1,0.5,1.5,0.7,5.1,1.5,38.95689271,-95.27493322,19,5,59,11.472,0.01,3.829,3.824,3.819,0.1,0.5,0,-2.3,4.3,-174.1,185.9,1024,1024,1024,1024,1024,,,,,
203,539.6,8m 59.6s,38.95688239,-95.27492137,P-GPS,1.3,0.4,2.3,0.7,0.9,0.4,1.1,0.5,5.1,1.5,38.95689271,-95.27493322,19,5,59,11.472,0.01,3.829,3.824,3.819,0.1,0.4,0,-2.9,5.7,-174.2,185.8,1024,1024,1024,1024,1024,,,,,
204,539.7,8m 59.7s,38.95688272,-95.27492102,P-GPS,1.3,0.4,2.3,0.7,0.7,0.3,1.5,0.7,5.0,1.5,38.95689271,-95.27493322,19,5,59,11.472,0.01,3.829,3.824,3.819,0,0.3,0,-3.4,6.1,-174.3,185.7,1023,1024,1024,1024,1024,,,,,
205,539.8,8m 59.8s,38.95688302,-95.27492084,P-GPS,1.6,0.5,2.3,0.7,0.4,0.2,0.0,0.0,5.0,1.5,38.95689271,-95.27493322,19,5,59,11.472,0.01,3.829,3.824,3.819,0,0.2,0,-2.9,5,-174.2,185.8,1024,1131,1024,1024,1024,,,,,
206,539.9,8m 59.9s,38.95688325,-95.27492072,P-GPS,1.6,0.5,2.3,0.7,0.2,0.1,0.0,0.0,4.9,1.5,38.95689271,-95.27493322,19,5,59,11.472,0.01,3.829,3.824,3.819,0,0.1,0,-2.9,3.6,-174.2,185.8,1024,1317,1024,1024,1024,,,,,
207,540,9m 0s,38.95688343,-95.27492077,P-GPS,1.6,0.5,2.6,0.8,0.2,0.1,0.0,0.0,4.9,1.5,38.95689271,-95.27493322,19,5,59,11.472,0.01,3.829,3.824,3.819,0,0.1,0,-2.4,1.7,-174,186,1024,1387,1024,1024,1024,,,,,
208,540.1,9m 0.1s,38.9568836,-95.27492082,P-GPS,1.6,0.5,2.6,0.8,0.0,0.0,0.0,0.0,4.8,1.5,38.95689271,-95.27493322,19,5,59,11.472,0.01,3.829,3.824,3.819,0,0,0,-4.6,1.1,-174.1,185.9,1024,1386,1024,1024,1024,,,,,
209,540.2,9m 0.2s,38.95688367,-95.27492087,P-GPS,1.6,0.5,2.6,0.8,0.0,0.0,0.0,0.0,4.8,1.5,38.95689271,-95.27493322,19,5,59,11.472,0.01,3.829,3.824,3.819,0,0,0,-6.5,0.5,-174.1,185.9,1024,1366,1024,1024,1024,,,,,
210,540.3,9m 0.3s,38.95688369,-95.27492088,P-GPS,1.6,0.5,2.6,0.8,0.0,0.0,0.0,0.0,4.8,1.5,38.95689271,-95.27493322,19,5,59,11.472,0.01,3.829,3.824,3.819,0,0,0,-7.3,0.5,-174.1,185.9,1024,1271,1024,1024,1024,,,,,
211,540.4,9m 0.4s,38.95688354,-95.27492086,P-GPS,1.6,0.5,2.6,0.8,0.2,0.1,0.0,0.0,4.8,1.5,38.95689271,-95.27493322,19,5,59,11.472,0.01,3.829,3.824,3.819,-0.1,0,0,-7,0.4,-174,186,1024,1305,1024,1024,1024,,,,,
212,540.5,9m 0.5s,38.95688333,-95.27492084,P-GPS,1.6,0.5,2.3,0.7,0.4,0.2,1.1,0.5,4.9,1.5,38.95689271,-95.27493322,19,5,59,11.472,0.01,3.829,3.824,3.819,-0.2,0,0,-5.4,0.8,-174,186,1024,1298,1024,1024,1024,,,,,
213,540.6,9m 0.6s,38.95688299,-95.27492076,P-GPS,1.6,0.5,2.6,0.8,0.4,0.2,0.0,0.0,5.0,1.5,38.95689271,-95.27493322,19,5,59,11.472,0.01,3.829,3.824,3.819,-0.2,0,0,-5.6,0.7,-174,186,1024,1024,1024,1024,1024,,,,,
214,540.7,9m 0.7s,38.95688264,-95.27492071,P-GPS,1.6,0.5,2.6,0.8,0.7,0.3,1.5,0.7,5.1,1.6,38.95689271,-95.27493322,19,5,59,11.472,0.01,3.829,3.824,3.819,-0.3,0,0,-5.3,0.1,-174,186,1024,1024,1024,1024,1024,,,,,
215,540.8,9m 0.8s,38.95688217,-95.27492057,P-GPS,1.6,0.5,2.6,0.8,0.7,0.3,1.1,0.5,5.3,1.6,38.95689271,-95.27493322,19,5,59,11.472,0.01,3.829,3.824,3.819,-0.3,0,0,-3.1,0.3,-174.1,185.9,1024,1024,1024,1024,1024,,,,,
216,540.9,9m 0.9s,38.95688173,-95.27492046,P-GPS,1.6,0.5,2.6,0.8,0.7,0.3,1.1,0.5,5.4,1.6,38.95689271,-95.27493322,19,5,59,11.472,0.01,3.829,3.824,3.819,-0.3,0,0,-0.2,0.5,-174,186,1024,1024,1024,1024,1024,,,,,
217,541,9m 1s,38.95688132,-95.27492027,P-GPS,1.3,0.4,2.6,0.8,0.7,0.3,1.1,0.5,5.6,1.7,38.95689271,-95.27493322,19,5,59,11.472,0.01,3.829,3.824,3.819,-0.3,0,0,2,0.9,-174,186,1029,1099,1024,1024,1024,,,,,
218,541.1,9m 1.1s,38.95688101,-95.27492012,P-GPS,1.3,0.4,2.6,0.8,0.4,0.2,1.5,0.7,5.7,1.7,38.95689271,-95.27493322,19,5,59,11.472,0.01,3.829,3.824,3.819,-0.2,0,0,2.7,1.2,-174,186,1316,1108,1024,1024,1024,,,,,
219,541.2,9m 1.2s,38.95688079,-95.27491989,P-GPS,1.3,0.4,2.6,0.8,0.2,0.1,0.0,0.0,5.8,1.8,38.95689271,-95.27493322,19,5,59,11.472,0.01,3.829,3.824,3.819,-0.1,0,0,0.4,1.1,-174,186,1317,1024,1024,1024,1024,,,,,
220,541.3,9m 1.3s,38.95688065,-95.27491972,P-GPS,1.3,0.4,2.6,0.8,0.2,0.1,0.0,0.0,5.8,1.8,38.95689271,-95.27493322,19,5,59,11.472,0.01,3.829,3.824,3.819,-0.1,0,0,-0.9,3.1,-174.2,185.8,1316,1024,1024,1024,1024,,,,,
221,541.4,9m 1.4s,38.95688057,-95.27491954,P-GPS,1.3,0.4,2.6,0.8,0.0,0.0,0.0,0.0,5.9,1.8,38.95689271,-95.27493322,19,5,59,11.472,0.01,3.829,3.824,3.819,0,0,0,-1,3.7,-174.2,185.8,1395,1024,1024,1024,1024,,,,,
222,541.5,9m 1.5s,38.95688053,-95.27491948,P-GPS,1.6,0.5,2.6,0.8,0.0,0.0,0.0,0.0,5.9,1.8,38.95689271,-95.27493322,19,5,59,11.472,0.01,3.829,3.824,3.819,0,0,0,-1.1,4,-174.2,185.8,1341,1024,1024,1024,1024,,,,,
223,541.6,9m 1.6s,38.95688053,-95.27491948,P-GPS,1.6,0.5,2.6,0.8,0.2,0.1,0.0,0.0,5.9,1.8,38.95689271,-95.27493322,19,5,59,11.474,0.01,3.83,3.824,3.82,0,-0.1,0,-1.2,5.5,-174.2,185.8,1024,1024,1024,1024,1024,,,,,
224,541.7,9m 1.7s,38.95688053,-95.2749196,P-GPS,1.6,0.5,2.6,0.8,0.4,0.2,0.0,0.0,5.9,1.8,38.95689271,-95.27493322,19,5,59,11.474,0.01,3.83,3.824,3.82,0,-0.2,0,-1.1,4.6,-174.2,185.8,1020,1024,1024,1024,1024,,,,,
225,541.8,9m 1.8s,38.95688056,-95.27491983,P-GPS,1.6,0.5,2.6,0.8,0.4,0.2,0.0,0.0,5.8,1.8,38.95689271,-95.27493322,19,5,59,11.474,0.01,3.83,3.824,3.82,0,-0.2,0,-1.2,1.5,-174,186,1013,1024,1024,1024,1024,,,,,
226,541.9,9m 1.9s,38.95688059,-95.27492011,P-GPS,1.6,0.5,2.6,0.8,0.4,0.2,0.0,0.0,5.8,1.8,38.95689271,-95.27493322,19,5,59,11.474,0.01,3.83,3.824,3.82,0,-0.2,0,-1.4,-0.4,-174.1,185.9,1020,1024,1024,1024,1024,,,,,
227,542,9m 2s,38.95688061,-95.27492044,P-GPS,1.6,0.5,2.6,0.8,0.4,0.2,1.1,0.5,5.7,1.7,38.95689271,-95.27493322,19,5,59,11.474,0.01,3.83,3.824,3.82,0,-0.2,0,-1.4,-2,-174.2,185.8,1030,1024,1024,1024,1024,,,,,
228,542.1,9m 2.1s,38.95688062,-95.27492072,P-GPS,1.6,0.5,2.6,0.8,0.4,0.2,0.0,0.0,5.7,1.7,38.95689271,-95.27493322,19,5,59,11.474,0.01,3.83,3.824,3.82,0,-0.2,0,-1.4,-2.5,-174.2,185.8,1348,1024,1024,1024,1024,,,,,
229,542.2,9m 2.2s,38.95688063,-95.27492095,P-GPS,1.6,0.5,2.6,0.8,0.2,0.1,0.0,0.0,5.6,1.7,38.95689271,-95.27493322,19,5,59,11.474,0.01,3.83,3.824,3.82,0,-0.1,0,-1.3,-1.7,-174.2,185.8,1271,1024,1024,1024,1024,,,,,
230,542.3,9m 2.3s,38.95688064,-95.27492111,P-GPS,1.6,0.5,2.6,0.8,0.2,0.1,0.0,0.0,5.6,1.7,38.95689271,-95.27493322,19,5,59,11.474,0.01,3.83,3.824,3.82,0,-0.1,0,-1.5,2,-174.2,185.8,1024,1024,1024,1024,1024,,,,,
231,542.4,9m 2.4s,38.95688065,-95.27492125,P-GPS,1.6,0.5,2.6,0.8,0.2,0.1,0.0,0.0,5.6,1.7,38.95689271,-95.27493322,19,5,59,11.475,0.01,3.83,3.825,3.82,0,-0.1,0,-1.4,1.6,-174.1,185.9,1024,1024,1024,1024,1024,,,,,
232,542.5,9m 2.5s,38.95688066,-95.2749214,P-GPS,1.6,0.5,2.6,0.8,0.2,0.1,0.0,0.0,5.5,1.7,38.95689271,-95.27493322,19,5,59,11.475,0.01,3.83,3.825,3.82,0,-0.1,0,-1.3,0,-174.1,185.9,1024,1024,1024,1024,1024,,,,,
233,542.6,9m 2.6s,38.95688067,-95.27492156,P-GPS,1.6,0.5,2.6,0.8,0.2,0.1,0.0,0.0,5.5,1.7,38.95689271,-95.27493322,19,5,59,11.475,0.01,3.83,3.825,3.82,0,-0.1,0,-1.6,-0.6,-174,186,1024,1024,1024,1024,1024,,,,,
234,542.7,9m 2.7s,38.95688068,-95.27492169,P-GPS,1.6,0.5,2.6,0.8,0.0,0.0,0.0,0.0,5.5,1.7,38.95689271,-95.27493322,19,5,59,11.475,0.01,3.83,3.825,3.82,0,0,0,-1.8,-1.2,-174,186,1024,1024,1024,1024,1024,,,,,
235,542.8,9m 2.8s,38.95688071,-95.27492179,P-GPS,1.6,0.5,3.0,0.9,0.0,0.0,0.0,0.0,5.4,1.7,38.95689271,-95.27493322,19,5,59,11.475,0.01,3.83,3.825,3.82,0,0,0,-2,-1,-174.1,185.9,1024,1024,1024,1024,1024,,,,,
236,542.9,9m 2.9s,38.95688073,-95.27492186,P-GPS,1.6,0.5,3.0,0.9,0.0,0.0,0.0,0.0,5.4,1.7,38.95689271,-95.27493322,19,5,59,11.475,0.01,3.83,3.825,3.82,0,0,0,-1.9,-0.4,-174.1,185.9,1079,1024,1024,1024,1024,,,,,
237,543,9m 3s,38.95688076,-95.27492189,P-GPS,1.3,0.4,3.0,0.9,0.0,0.0,0.0,0.0,5.4,1.6,38.95689271,-95.27493322,19,5,59,11.475,0.01,3.83,3.825,3.82,0,0,0,-1.9,0,-174.2,185.8,1024,1024,1024,1024,1024,,,,,
238,543.1,9m 3.1s,38.95688079,-95.2749219,P-GPS,1.3,0.4,2.6,0.8,0.0,0.0,0.0,0.0,5.4,1.6,38.95689271,-95.27493322,19,5,59,11.475,0.01,3.83,3.825,3.82,0,0,0,-1.8,0,-174.2,185.8,1024,1024,1024,1024,1024,,,,,
239,543.2,9m 3.2s,38.95688085,-95.2749219,P-GPS,1.3,0.4,3.0,0.9,0.0,0.0,0.0,0.0,5.4,1.6,38.95689271,-95.27493322,19,5,59,11.475,0.01,3.83,3.825,3.82,0,0,0,-1.7,0.4,-174.1,185.9,1024,1024,1024,1024,1024,,,,,
240,543.3,9m 3.3s,38.95688092,-95.2749219,P-GPS,1.3,0.4,3.0,0.9,0.0,0.0,0.0,0.0,5.4,1.6,38.95689271,-95.27493322,19,5,59,11.475,0.01,3.83,3.825,3.82,0,0,0,-2,0.5,-174.1,185.9,1024,1024,1024,1024,1024,,,,,
241,543.4,9m 3.4s,38.956881,-95.27492189,P-GPS,1.3,0.4,2.6,0.8,0.0,0.0,0.0,0.0,5.3,1.6,38.95689271,-95.27493322,19,5,59,11.475,0.01,3.83,3.825,3.82,0,0,0,-2.1,0.6,-174.1,185.9,1196,1024,1024,1024,1024,,,,,
242,543.5,9m 3.5s,38.95688105,-95.27492189,P-GPS,1.3,0.4,2.6,0.8,0.0,0.0,1.1,0.5,5.3,1.6,38.95689271,-95.27493322,19,5,59,11.475,0.01,3.83,3.825,3.82,0,0,0,-2.1,0.6,-174.1,185.9,1297,1024,1024,1024,1024,,,,,
243,543.6,9m 3.6s,38.95688112,-95.27492189,P-GPS,1.3,0.4,2.6,0.8,0.0,0.0,0.0,0.0,5.3,1.6,38.95689271,-95.27493322,19,5,59,11.47,0.009,3.828,3.823,3.819,0,0,0,-1.8,1.5,-174.2,185.8,1330,1024,1024,1024,1024,,,,,
244,543.7,9m 3.7s,38.95688117,-95.2749219,P-GPS,1.3,0.4,2.6,0.8,0.0,0.0,0.0,0.0,5.3,1.6,38.95689271,-95.27493322,19,5,59,11.47,0.009,3.828,3.823,3.819,0,0,0,-1.5,3,-174.3,185.7,1165,1024,1024,1024,1024,,,,,
245,543.8,9m 3.8s,38.95688126,-95.27492195,P-GPS,1.3,0.4,2.6,0.8,0.0,0.0,0.0,0.0,5.3,1.6,38.95689271,-95.27493322,19,5,59,11.47,0.009,3.828,3.823,3.819,0,0,0,-1.3,4,-174.3,185.7,1114,1024,1024,1024,1024,,,,,
246,543.9,9m 3.9s,38.95688136,-95.27492208,P-GPS,1.3,0.4,2.6,0.8,0.2,0.1,0.0,0.0,5.2,1.6,38.95689271,-95.27493322,19,5,59,11.47,0.009,3.828,3.823,3.819,0,-0.1,0,-1.7,1.8,-174.3,185.7,1024,1024,1024,1024,1024,,,,,
247,544,9m 4s,38.95688146,-95.27492227,P-GPS,1.3,0.4,2.6,0.8,0.2,0.1,0.0,0.0,5.1,1.6,38.95689271,-95.27493322,19,5,59,11.47,0.009,3.828,3.823,3.819,0,-0.1,0,-1.8,0.9,-174.3,185.7,1024,1024,1024,1024,1024,,,,,
248,544.1,9m 4.1s,38.95688152,-95.27492247,P-GPS,1.3,0.4,2.6,0.8,0.2,0.1,0.0,0.0,5.1,1.6,38.95689271,-95.27493322,19,5,59,11.47,0.009,3.828,3.823,3.819,0.1,-0.1,0,-1.7,0.6,-174.3,185.7,1024,1024,1024,1024,1024,,,,,
249,544.2,9m 4.2s,38.95688162,-95.27492269,P-GPS,1.3,0.4,2.6,0.8,0.3,0.1,0.0,0.0,5.0,1.5,38.95689271,-95.27493322,19,5,59,11.47,0.009,3.828,3.823,3.819,0.1,-0.1,0,-1.6,-0.1,-174.3,185.7,1024,1024,1024,1024,1024,,,,,
250,544.3,9m 4.3s,38.95688171,-95.27492288,P-GPS,1.3,0.4,2.6,0.8,0.3,0.1,0.0,0.0,5.0,1.5,38.95689271,-95.27493322,19,5,59,11.47,0.009,3.828,3.823,3.819,0.1,-0.1,0,-2.3,-0.9,-174.2,185.8,1070,1024,1024,1024,1024,,,,,
251,544.4,9m 4.4s,38.95688179,-95.27492303,P-GPS,1.6,0.5,2.6,0.8,0.3,0.1,0.0,0.0,4.9,1.5,38.95689271,-95.27493322,19,5,59,11.47,0.009,3.828,3.823,3.819,0.1,-0.1,0,-2.6,-1.2,-174.2,185.8,1141,1024,1024,1024,1024,,,,,
252,544.5,9m 4.5s,38.95688185,-95.27492314,P-GPS,1.6,0.5,2.6,0.8,0.2,0.1,0.0,0.0,4.9,1.5,38.95689271,-95.27493322,19,5,59,11.47,0.009,3.828,3.823,3.819,0.1,0,0,-2.2,-0.4,-174.1,185.9,1142,1024,1024,1024,1024,,,,,
253,544.6,9m 4.6s,38.95688191,-95.27492322,P-GPS,1.3,0.4,2.6,0.8,0.0,0.0,0.0,0.0,4.9,1.5,38.95689271,-95.27493322,19,5,59,11.47,0.009,3.828,3.823,3.819,0,0,0,-1.8,0.3,-174.2,185.8,1024,1024,1024,1024,1024,,,,,
254,544.7,9m 4.7s,38.95688197,-95.27492329,P-GPS,1.3,0.4,2.6,0.8,0.0,0.0,0.0,0.0,4.8,1.5,38.95689271,-95.27493322,19,5,59,11.47,0.009,3.828,3.823,3.819,0,0,0,-1.6,0.5,-174.2,185.8,1024,1024,1024,1024,1024,,,,,
255,544.8,9m 4.8s,38.95688207,-95.27492334,P-GPS,1.3,0.4,2.6,0.8,0.0,0.0,0.0,0.0,4.8,1.5,38.95689271,-95.27493322,19,5,59,11.47,0.009,3.828,3.823,3.819,0,0,0,-1.8,0,-174.2,185.8,1024,1024,1024,1024,1024,,,,,
256,544.9,9m 4.9s,38.95688215,-95.27492338,P-GPS,1.3,0.4,2.6,0.8,0.0,0.0,0.0,0.0,4.8,1.5,38.95689271,-95.27493322,19,5,59,11.47,0.009,3.828,3.823,3.819,0,0,0,-2.1,-0.2,-174.1,185.9,1024,1024,1024,1024,1024,,,,,
257,545,9m 5s,38.95688226,-95.27492339,P-GPS,1.3,0.4,2.6,0.8,0.0,0.0,0.0,0.0,4.7,1.4,38.95689271,-95.27493322,19,5,59,11.47,0.009,3.828,3.823,3.819,0,0,0,-2.6,-0.1,-174.1,185.9,1024,1024,1024,1024,1024,,,,,
258,545.1,9m 5.1s,38.95688235,-95.27492339,P-GPS,1.3,0.4,2.6,0.8,0.0,0.0,0.0,0.0,4.7,1.4,38.95689271,-95.27493322,19,5,59,11.47,0.009,3.828,3.823,3.819,0,0,0,-2.6,0,-174.2,185.8,1024,1024,1024,1024,1024,,,,,
259,545.2,9m 5.2s,38.95688244,-95.27492336,P-GPS,1.3,0.4,2.6,0.8,0.0,0.0,0.0,0.0,4.7,1.4,38.95689271,-95.27493322,19,5,59,11.47,0.009,3.828,3.823,3.819,0,0,0,-2.4,0.4,-174.2,185.8,1024,1024,1024,1024,1024,,,,,
260,545.3,9m 5.3s,38.95688251,-95.27492333,P-GPS,1.3,0.4,2.6,0.8,0.0,0.0,0.0,0.0,4.7,1.4,38.95689271,-95.27493322,19,5,59,11.47,0.009,3.828,3.823,3.819,0,0,0,-2.2,0,-174.2,185.8,1024,1024,1024,1024,1024,,,,,
261,545.4,9m 5.4s,38.9568826,-95.27492329,P-GPS,1.3,0.4,2.6,0.8,0.0,0.0,0.0,0.0,4.6,1.4,38.95689271,-95.27493322,19,5,59,11.47,0.009,3.828,3.823,3.819,0,0,0,-2.1,-0.8,-174.2,185.8,1024,1024,1024,1024,1024,,,,,
262,545.5,9m 5.5s,38.95688267,-95.27492323,P-GPS,1.3,0.4,2.6,0.8,0.0,0.0,0.0,0.0,4.6,1.4,38.95689271,-95.27493322,19,5,59,11.47,0.009,3.828,3.823,3.819,0,0,0,-2.4,-0.1,-174.3,185.7,1024,1024,1024,1024,1024,,,,,
263,545.6,9m 5.6s,38.95688274,-95.27492314,P-GPS,1.3,0.4,2.6,0.8,0.0,0.0,0.0,0.0,4.6,1.4,38.95689271,-95.27493322,19,5,59,11.466,0.008,3.826,3.822,3.818,0,0,0,-2.4,0,-174.3,185.7,1024,1024,1024,1024,1024,,,,,
264,545.7,9m 5.7s,38.95688278,-95.27492304,P-GPS,1.3,0.4,2.6,0.8,0.0,0.0,0.0,0.0,4.6,1.4,38.95689271,-95.27493322,19,5,59,11.466,0.008,3.826,3.822,3.818,0,0,0,-2.3,0.5,-174.2,185.8,1024,1024,1024,1024,1024,,,,,
265,545.8,9m 5.8s,38.95688282,-95.27492293,P-GPS,1.3,0.4,2.6,0.8,0.0,0.0,0.0,0.0,4.7,1.4,38.95689271,-95.27493322,19,5,59,11.466,0.008,3.826,3.822,3.818,0,0,0,-2.1,1.1,-174.1,185.9,1024,1024,1024,1024,1024,,,,,
266,545.9,9m 5.9s,38.95688284,-95.27492284,P-GPS,1.3,0.4,2.6,0.8,0.0,0.0,0.0,0.0,4.6,1.4,38.95689271,-95.27493322,19,5,59,11.466,0.008,3.826,3.822,3.818,0,0,0,-2,1.4,-174.1,185.9,1024,1024,1024,1024,1024,,,,,
267,546,9m 6s,38.95688286,-95.27492278,P-GPS,1.3,0.4,2.6,0.8,0.0,0.0,0.0,0.0,4.7,1.4,38.95689271,-95.27493322,19,5,59,11.466,0.008,3.826,3.822,3.818,0,0,0,-2.2,1.3,-174.1,185.9,1024,1024,1024,1024,1024,,,,,
268,546.1,9m 6.1s,38.95688286,-95.27492275,P-GPS,1.3,0.4,2.6,0.8,0.0,0.0,0.0,0.0,4.7,1.4,38.95689271,-95.27493322,19,5,59,11.466,0.008,3.826,3.822,3.818,0,0,0,-2.3,1.3,-174.2,185.8,1024,1024,1024,1024,1024,,,,,
269,546.2,9m 6.2s,38.95688288,-95.27492278,P-GPS,1.3,0.4,2.6,0.8,0.0,0.0,0.0,0.0,4.7,1.4,38.95689271,-95.27493322,19,5,59,11.466,0.008,3.826,3.822,3.818,0,0,0,-2.3,1.1,-174.2,185.8,1024,1024,1024,1024,1024,,,,,
270,546.3,9m 6.3s,38.95688289,-95.27492282,P-GPS,1.3,0.4,2.6,0.8,0.0,0.0,0.0,0.0,4.6,1.4,38.95689271,-95.27493322,19,5,59,11.466,0.008,3.826,3.822,3.818,0,0,0,-2.2,0.7,-174.3,185.7,1024,1024,1024,1024,1024,,,,,
271,546.4,9m 6.4s,38.9568829,-95.27492289,P-GPS,1.3,0.4,2.6,0.8,0.0,0.0,0.0,0.0,4.6,1.4,38.95689271,-95.27493322,19,5,59,11.462,0.009,3.825,3.821,3.816,0,0,0,-1.7,0.2,-174.3,185.7,1024,1024,1024,1024,1024,,,,,
272,546.5,9m 6.5s,38.95688289,-95.27492294,P-GPS,1.3,0.4,2.6,0.8,0.0,0.0,0.0,0.0,4.6,1.4,38.95689271,-95.27493322,19,5,59,11.462,0.009,3.825,3.821,3.816,0,0,0,-1.6,-0.1,-174.3,185.7,1024,1024,1024,1024,1024,,,,,
273,546.6,9m 6.6s,38.9568829,-95.27492299,P-GPS,1.3,0.4,2.6,0.8,0.0,0.0,0.0,0.0,4.6,1.4,38.95689271,-95.27493322,19,5,59,11.462,0.009,3.825,3.821,3.816,0,0,0,-1.9,0,-174.3,185.7,1024,1024,1024,1024,1024,,,,,
274,546.7,9m 6.7s,38.95688289,-95.27492302,P-GPS,1.3,0.4,2.6,0.8,0.0,0.0,0.0,0.0,4.6,1.4,38.95689271,-95.27493322,19,5,59,11.462,0.009,3.825,3.821,3.816,0,0,0,-2,0.1,-174.3,185.7,1024,1024,1024,1024,1024,,,,,
275,546.8,9m 6.8s,38.95688289,-95.27492305,P-GPS,1.3,0.4,2.6,0.8,0.0,0.0,0.0,0.0,4.6,1.4,38.95689271,-95.27493322,19,5,59,11.462,0.009,3.825,3.821,3.816,0,0,0,-2.1,0.4,-174.3,185.7,1024,1024,1024,1024,1024,,,,,
276,546.9,9m 6.9s,38.95688288,-95.27492307,P-GPS,1.3,0.4,2.6,0.8,0.0,0.0,0.0,0.0,4.6,1.4,38.95689271,-95.27493322,19,5,59,11.462,0.009,3.825,3.821,3.816,0,0,0,-2.2,0.6,-174.3,185.7,1024,1024,1024,1024,1024,,,,,
277,547,9m 7s,38.95688288,-95.27492308,P-GPS,1.3,0.4,2.6,0.8,0.0,0.0,0.0,0.0,4.6,1.4,38.95689271,-95.27493322,19,5,59,11.462,0.009,3.825,3.821,3.816,0,0,0,-2.3,0.6,-174.2,185.8,1024,1024,1024,1024,1024,,,,,
278,547.1,9m 7.1s,38.95688285,-95.27492309,P-GPS,1.3,0.4,2.6,0.8,0.0,0.0,1.1,0.5,4.6,1.4,38.95689271,-95.27493322,19,5,59,11.462,0.009,3.825,3.821,3.816,0,0,0,-2.1,0.5,-174.3,185.7,1024,1024,1024,1024,1024,,,,,
